lines,latitude,longitude,time,brigade,vehicle_number,scheduled_time,time_difference,stop_id,stop_pole,stop_name
213,52.1600513,21.2233658,13:31:12,1,1003,13:33:00,-1.8,2162,02,Wasilkowska
225,52.222961,21.101779,13:31:12,501,1009,13:30:00,1.2,2148,04,Gocław
213,52.214196,21.1425295,13:31:11,5,1012,13:28:00,3.183333333333333,2264,01,Pielęgniarek
213,52.2227923,21.1024645,13:30:53,4,1014,13:11:00,19.883333333333333,2148,05,Gocław
108,52.1823691,21.0568134,13:31:14,2,1034,13:29:00,2.2333333333333334,3033,55,św.Bonifacego
208,52.205316,20.971356,13:30:57,05,1036,13:32:00,-1.05,4006,02,Dickensa
107,52.226981,21.01817,13:30:56,4,1044,13:22:00,8.933333333333334,7034,02,Wspólna
228,52.204324,20.941456,13:31:08,1,1055,13:32:00,-0.8666666666666667,4047,05,PKP WKD Al.Jerozolimskie
156,52.279056,20.977758,13:31:13,3,1110,13:29:00,2.216666666666667,6133,03,os.Potok
173,52.246893,21.187503,13:31:08,10,1119,13:34:00,-2.8666666666666667,2277,01,Brata Alberta
L27,52.3485165,21.2055021,13:30:29,1,11201,13:27:00,3.4833333333333334,1734,01,Mała
263,52.182308,21.068903,13:31:10,3,1200,13:30:00,1.1666666666666667,3065,02,Sadyba
263,52.1502709,21.0465089,13:31:14,5,1201,13:31:00,0.23333333333333334,3280,01,Metro Imielin
106,52.232265,20.976538,13:31:09,6,1202,13:31:00,0.15,5095,01,Siedmiogrodzka
166,52.133976,21.074898,13:31:13,661,1203,13:30:00,1.2166666666666666,3287,02,Wąwozowa
263,52.1800394,21.0532026,13:31:13,2,1211,13:31:00,0.21666666666666667,3093,01,Batumi
139,52.105682,21.10688,13:31:08,62,1216,13:12:00,19.133333333333333,3315,01,Wczasowa
218,52.1834335,21.0013194,13:31:12,1,1217,13:27:00,4.2,3242,06,Domaniewska
106,52.2463444,21.0194237,13:31:14,4,1219,13:32:00,-0.7666666666666667,7059,01,Mariensztat
153,52.256855,21.177042,13:31:10,1,1412,13:34:00,-2.8333333333333335,2086,02,Rembertów-Kolonia
119,52.205711,21.172453,13:31:12,1,1413,13:26:00,5.2,2438,02,Wawer-Ratusz
183,52.243786,21.138107,13:31:14,2,1419,13:33:00,-1.7666666666666666,2067,01,Rekrucka
173,52.249508,21.244732,13:31:14,4,1426,13:29:00,2.2333333333333334,2285,02,Wola Grzybowska
338,52.259998,21.0270681,13:31:14,05,1501,13:32:00,-0.7666666666666667,1005,18,pl.Hallera
168,52.203348,21.009906,13:31:07,6,1523,13:23:00,8.116666666666667,3229,04,Madalińskiego
117,52.222193,21.102438,13:31:14,5,1528,13:30:00,1.2333333333333334,2148,01,Gocław
218,52.1797767,21.0242683,13:31:11,2,1533,13:34:00,-2.816666666666667,3009,16,Metro Wilanowska
106,52.2478417,20.9651233,13:31:01,1,1534,13:19:00,12.016666666666667,5124,02,Ostroroga
166,52.1645233,21.0458367,13:31:06,343,1546,13:28:00,3.1,3029,01,SGGW-Biblioteka
156,52.2530716,21.052182,13:31:13,1,1800,13:30:00,1.2166666666666666,1028,06,Dw.Wschodni (Kijowska)
118,52.2421571,21.0244983,13:31:10,3,1809,13:29:00,2.1666666666666665,7061,01,Biblioteka Uniwersytecka
303,52.2853888,20.9406721,13:31:10,3,1810,13:32:00,-0.8333333333333334,6055,05,Metro Wawrzyszew
126,52.2885821,21.0316296,13:31:08,3,1813,13:28:00,3.1333333333333333,1083,02,Rembielińska
166,52.1654931,21.04524,13:31:08,8,1817,13:31:00,0.13333333333333333,3029,02,SGGW-Biblioteka
122,52.2684713,20.9858095,13:31:08,3,1833,13:18:00,13.133333333333333,6003,09,pl.Wilsona
183,52.2441616,21.0941103,13:31:12,1,1838,13:29:00,2.2,2010,01,Wspólna Droga
181,52.305421,20.9077845,13:31:12,1,1839,13:31:00,0.2,6071,01,Cm.Północny-Brama Płn.
173,52.2349033,21.1258936,13:31:14,9,1849,13:31:00,0.23333333333333334,2015,01,Płowiecka
183,52.2387651,21.1916751,13:31:09,3,1857,13:33:00,-1.85,2379,01,Zielona
115,52.2464108,21.1848883,13:31:10,4,1862,13:29:00,2.1666666666666665,2306,01,Wspólna (Warszawa Wesoła)
222,52.2144,21.0221,13:31:13,1,1901,13:31:00,0.21666666666666667,3001,03,pl.Unii Lubelskiej
222,52.188876,21.002891,13:31:06,5,1906,13:32:00,-0.9,3240,05,Woronicza
222,52.212708,21.021198,13:31:12,4,1911,13:27:00,4.2,3001,04,pl.Unii Lubelskiej
165,52.1560612,21.0008832,13:31:15,2,2001,13:30:00,1.25,3289,01,Hołubcowa
189,52.1994565,20.9153632,13:31:15,14,2005,13:26:00,5.25,4092,03,Ryżowa
217,52.149258,21.046059,13:31:13,1,2012,13:28:00,3.216666666666667,3280,04,Metro Imielin
709,52.088536,21.0192902,13:31:13,5,2016,13:31:00,0.21666666666666667,3161,02,Energetyczna
710,52.1002344,21.1289407,13:31:15,1,2017,13:28:00,3.25,3192,02,Mirków-Szkoła
189,52.182652,21.068567,13:31:14,9,2018,13:32:00,-0.7666666666666667,3065,02,Sadyba
162,52.1933002,21.0849825,13:31:14,7,2022,13:31:00,0.23333333333333334,3079,03,EC Siekierki
522,52.22892,21.011978,13:31:12,5,2027,13:31:00,0.2,7013,01,Centrum
727,52.138447,21.0175,13:31:11,04,2044,13:31:00,0.18333333333333332,3016,01,Żołny
517,52.1926079,20.9070415,13:31:15,2,2205,13:27:00,4.25,4094,04,Dzieci Warszawy
517,52.193352,20.864571,13:31:12,10,2218,13:32:00,-0.8,4207,51,Orląt Lwowskich
177,52.239643,20.897364,13:31:11,2,2224,13:28:00,3.183333333333333,5050,03,os.Górczewska
187,52.1957872,20.9106604,13:31:14,1,2230,13:31:00,0.23333333333333334,4093,01,Zapustna
191,52.203014,20.928307,13:31:12,6,2239,13:28:00,3.2,4101,02,Mikołajska
105,52.2295579,20.9789871,13:31:15,1,2242,13:28:00,3.25,5041,02,Karolkowa
105,52.218548,20.909189,13:31:11,7,2244,13:32:00,-0.8166666666666667,5013,02,Tkaczy
172,52.212112,20.955517,13:31:11,7,2251,13:31:00,0.18333333333333332,4027,02,CH Blue City
184,52.249325,20.921556,13:31:12,493,2253,13:25:00,6.2,5106,01,Orlich Gniazd
136,52.2433861,20.9663799,13:31:12,11,2258,13:30:00,1.2,5067,05,Pl.Pole Elekcyjne
L51,52.0991328,21.2686523,13:31:11,1,25188,13:30:00,1.1833333333333333,2237,02,Park Miejski
112,52.3044481,21.082309,13:31:12,7,3402,13:34:00,-2.8,1234,04,CH Marki
509,52.2392463,21.0512611,13:31:13,8,3403,13:26:00,5.216666666666667,2131,03,rondo Waszyngtona
Z26,52.22483,20.93019,13:31:13,3,3414,13:32:00,-0.7833333333333333,5011,07,Cm.Wolski
512,52.2838328,21.0567163,13:31:11,2,3418,13:28:00,3.183333333333333,1477,02,Kanał Bródnowski
180,52.271167,20.934897,13:31:09,14,3431,13:31:00,0.15,6047,03,Conrada
112,52.2750275,20.9376318,13:31:14,8,3451,13:31:00,0.23333333333333334,6046,05,al.Reymonta
511,52.3488326,20.9427271,13:31:13,3,3452,13:31:00,0.21666666666666667,1317,02,Dąbrówka Wiślana
112,52.2550485,20.9172736,13:31:14,3,3455,13:25:00,6.233333333333333,5160,02,Pirenejska
245,52.280536,21.131161,13:31:12,1,3459,13:18:00,13.2,1474,04,Maczka
509,52.2264553,21.0995198,13:31:09,5,3463,13:31:00,0.15,2128,02,os.Wilga
705,52.4705006,21.090865,13:31:12,63,3465,13:32:00,-0.8,1439,02,Siwek
723,52.3834966,20.9237251,13:31:13,476,3466,13:30:00,1.2166666666666666,1189,01,Szarych Szeregów
L-2,52.0688408,21.024536,13:31:15,683,35132,13:30:00,1.25,3168,01,Kolejka Piaseczyńska
178,52.232117,20.99375,13:31:10,4,4206,13:27:00,4.166666666666667,5039,01,Norblin
178,52.1929977,20.9088092,13:31:13,5,4215,13:31:00,0.21666666666666667,4094,01,Dzieci Warszawy
207,52.200345,20.892912,13:31:14,1,4217,13:33:00,-1.7666666666666666,4216,03,Ursus-Ratusz
122,52.253029,20.924049,13:31:14,679,4220,13:24:00,7.233333333333333,5107,01,Widawska
154,52.185493,20.955326,13:31:14,1,4221,13:31:00,0.23333333333333334,4012,05,Krakowiaków
207,52.195625,20.883543,13:31:08,3,4223,13:31:00,0.13333333333333333,4217,23,PKP Ursus
154,52.2170551,20.9637741,13:31:14,3,4224,13:34:00,-2.7666666666666666,4045,71,rondo Zesłańców Syberyjskich
249,52.2372427,20.8966804,13:31:12,678,4236,13:30:00,1.2,5049,02,Szobera
178,52.211853,20.95182,13:31:15,6,4237,13:31:00,0.25,4051,02,Berestecka
129,52.2386735,20.9427361,13:31:13,3,4239,13:29:00,2.216666666666667,5030,03,Metro Księcia Janusza
714,52.2665421,20.8093122,13:31:14,1,4246,13:29:00,2.2333333333333334,6225,02,Karabeli
147,52.216105,21.2384022,13:31:14,2,4306,13:34:00,-2.7666666666666666,2348,01,Pogodna
168,52.2215797,21.0905811,13:31:14,1,4315,13:31:00,0.23333333333333334,2313,01,Meissnera
147,52.2049006,21.1132845,13:31:15,1,4316,13:30:00,1.25,2208,02,Kanał Nowe Ujście
153,52.258852,21.1609696,13:31:15,3,4319,13:30:00,1.25,2083,01,Rembertów-Ratusz
146,52.2472657,21.0431392,13:31:14,09,4320,13:28:00,3.2333333333333334,1231,01,Metro Stadion Narodowy
146,52.235425,21.0534934,13:31:14,3,4321,13:31:00,0.23333333333333334,2153,02,Francuska
249,52.2391959,20.9488174,13:31:14,2,4331,13:29:00,2.2333333333333334,5020,04,Park Moczydło
197,52.2250665,20.9308132,13:31:14,1,4333,13:34:00,-2.7666666666666666,5011,08,Cm.Wolski
714,52.2416454,20.8853122,13:31:15,2,4334,13:30:00,1.25,5142,04,Blizne Łaszczyńskiego
156,52.274326,21.066439,13:31:12,2,4403,13:31:00,0.2,1303,02,Kraśnicka
122,52.2610424,20.9567515,13:31:14,1,4404,13:29:00,2.2333333333333334,6093,02,Powązki-Cm.Wojskowy
118,52.219116,21.01552,13:31:15,1,4405,13:17:00,14.25,7006,09,Metro Politechnika
181,52.279331,20.974028,13:31:10,3,4414,13:14:00,17.166666666666668,6137,03,Rudzka
240,52.312798,21.066238,13:31:12,1,4416,13:30:00,1.2,1557,02,Podwójna
123,52.252655,21.083755,13:31:10,1,4420,13:27:00,4.166666666666667,2121,02,Przeworska
122,52.258766,20.917679,13:31:13,10,4424,13:27:00,4.216666666666667,5214,02,Zachodzącego Słońca
187,52.1946329,20.8691772,13:31:11,4,5203,13:31:00,0.18333333333333332,4343,04,Keniga
711,52.0911412,20.8000509,13:30:57,506,5206,13:31:00,-0.05,4349,01,P+R Nadarzyn
124,52.1637996,20.9308062,13:31:09,1,5214,13:30:00,1.15,4019,01,Na Skraju
171,52.2575347,20.9194798,13:31:06,453,5219,13:29:00,2.1,5064,03,Wrocławska
177,52.208996,20.893211,13:31:09,6,5228,13:29:00,2.15,4224,05,Nowe Włochy
188,52.2285593,21.0630839,13:31:10,6,5232,13:31:00,0.16666666666666666,2097,02,Saska
105,52.2212829,20.8975824,13:31:07,6,5237,13:26:00,5.116666666666666,5045,02,Sternicza
523,52.2172792,21.005316,13:31:12,10,5242,13:27:00,4.2,7093,06,GUS
191,52.1894691,20.8853395,13:31:07,4,5243,13:31:00,0.11666666666666667,4099,01,Spisaka
184,52.2080979,20.9644704,13:31:13,6,5245,13:31:00,0.21666666666666667,4119,01,Szczęśliwice
401,52.191535,20.861398,13:31:04,7,5250,13:31:00,0.06666666666666667,4211,01,Ursus-Sanktuarium
171,52.2297876,21.0222113,13:31:11,6,5251,13:28:00,3.183333333333333,7040,03,pl.Trzech Krzyży
317,52.1679485,21.0843394,13:31:12,2,5254,13:34:00,-2.8,3044,06,Wilanów
500,52.2875832,21.0481755,13:31:13,1,5403,13:31:00,0.21666666666666667,1145,01,Żuromińska
190,52.2575425,21.0416089,13:31:09,1,5408,13:27:00,4.15,1052,02,Rzeszotarskiej
512,52.290695,21.06982,13:31:12,1,5412,13:31:00,0.2,1061,01,Codzienna
132,52.315083,21.060377,13:31:14,2,5413,13:33:00,-1.7666666666666666,1359,02,os.Derby
132,52.27198,20.968681,13:31:15,5,5414,13:28:00,3.25,6005,11,Metro Marymont
731,52.343155,20.951715,13:31:14,479,5417,13:28:00,3.2333333333333334,1025,01,Poetów
723,52.2954469,20.9973782,13:31:15,475,5431,13:28:00,3.25,1014,01,EC Żerań
245,52.286411,21.10577,13:31:12,4,5435,13:31:00,0.2,1211,01,Warszawska
190,52.286293,21.074671,13:31:11,7,5440,13:30:00,1.1833333333333333,1060,01,Młodzieńcza
112,52.273254,20.967365,13:31:14,6,5449,13:31:00,0.23333333333333334,6075,05,Park Kaskada
503,52.258511,21.002874,13:31:12,10,5883,13:18:00,13.2,7054,03,Park Traugutta
175,52.216969,20.990305,13:31:12,400,5884,13:31:00,0.2,4029,02,Pomnik Lotnika
503,52.1457889,21.0434482,13:31:13,3,5889,13:26:00,5.216666666666667,3403,02,Warchałowskiego
128,52.200272,20.978727,13:31:11,408,5891,13:29:00,2.183333333333333,4112,02,Mołdawska
175,52.242065,21.015335,13:31:13,405,5899,13:30:00,1.2166666666666666,7045,01,Hotel Bristol
116,52.230936,21.02127,13:30:59,3,5901,13:22:00,8.983333333333333,7040,04,pl.Trzech Krzyży
503,52.232532,21.019932,13:31:14,8,5902,13:28:00,3.2333333333333334,7042,01,Foksal
116,52.1747504,21.0630119,13:31:14,8,5912,13:26:00,5.233333333333333,3035,01,Nałęczowska
116,52.202473,21.034565,13:31:13,5,5929,13:32:00,-0.7833333333333333,3027,52,Dolna
180,52.261753,20.954369,13:31:10,13,5934,13:26:00,5.166666666666667,6129,01,gen.Maczka
116,52.280808,20.923872,13:31:12,14,5954,13:30:00,1.2,6026,06,Bogusławskiego
111,52.2264,21.0839,13:31:13,3,5956,13:30:00,1.2166666666666666,2145,03,Abrahama
127,52.24316,21.02051,13:31:12,7,5962,13:34:00,-2.8,7100,02,Browarna
180,52.198994,21.051451,13:31:14,6,5967,13:31:00,0.23333333333333334,3060,02,al.Witosa
111,52.222069,21.102762,13:31:13,1,5968,13:31:00,0.21666666666666667,2148,01,Gocław
180,52.256191,20.969093,13:31:14,2,5970,13:25:00,6.233333333333333,6090,02,PKP Powązki
503,52.154636,21.049412,13:31:12,5,5972,13:24:00,7.2,3122,01,Teligi
518,52.273327,20.967468,13:31:10,2,5983,13:29:00,2.1666666666666665,6075,05,Park Kaskada
116,52.200844,21.036062,13:31:14,9,5986,13:26:00,5.233333333333333,3027,01,Dolna
116,52.280212,20.923113,13:31:10,16,5989,13:18:00,13.166666666666666,6026,05,Bogusławskiego
128,52.233326,21.019514,13:31:14,406,5994,13:24:00,7.233333333333333,7042,02,Foksal
180,52.25948,20.9606,13:31:12,1,5997,13:15:00,16.2,6091,02,Elbląska
L29,52.2677313,20.4626223,13:31:11,1,60056,13:32:00,-0.8166666666666667,6817,01,Kampinos
L-7,52.3461578,20.8575331,13:31:14,1,60058,13:31:00,0.23333333333333334,6806,01,Instytut Ekologii PAN
184,52.256695,20.920849,13:31:13,1,6201,13:33:00,-1.7833333333333334,5064,04,Wrocławska
105,52.221916,20.92428,13:31:14,3,6202,13:29:00,2.2333333333333334,5001,01,Połczyńska-parking P+R
517,52.19162,20.861237,13:31:14,1,6217,13:28:00,3.2333333333333334,4211,01,Ursus-Sanktuarium
105,52.238968,20.900509,13:31:15,5,6219,13:34:00,-2.75,5050,71,os.Górczewska
184,52.212803,20.967274,13:31:13,7,6229,13:30:00,1.2166666666666666,4154,03,Szczęśliwicka
172,52.1795165,21.0523447,13:31:10,4,6231,13:32:00,-0.8333333333333334,3093,02,Batumi
184,52.2909344,20.9277021,13:31:11,2,6234,13:31:00,0.18333333333333332,6059,24,Metro Młociny
L39,52.0974728,21.0531701,13:30:50,4,70001,13:31:00,-0.16666666666666666,3439,01,Srebrnych Świerków
L14,52.0797386,21.2018771,13:31:15,1,70033,13:32:00,-0.75,3854,01,Gassy-Pętla
177,52.2249767,20.8971389,13:31:01,3,7200,13:28:00,3.0166666666666666,5046,02,Siemiatycka
189,52.185997,21.064465,13:31:13,10,7202,13:23:00,8.216666666666667,3064,01,Goraszewska
190,52.2422371,20.9942562,13:31:15,13,7204,13:31:00,0.25,7085,02,Kino Femina
191,52.190842,20.892368,13:31:10,5,7206,13:25:00,6.166666666666667,4098,02,Wapowskiego
112,52.2926676,21.0234314,13:31:14,9,7207,13:25:00,6.233333333333333,1161,02,św.Hieronima
189,52.238831,20.896267,13:31:14,16,7222,13:28:00,3.2333333333333334,5050,01,os.Górczewska
184,52.28981,20.932467,13:31:14,3,7231,13:26:00,5.233333333333333,6057,04,Sokratesa
136,52.2479052,20.9652906,13:31:14,015,7240,13:31:00,0.23333333333333334,5124,02,Ostroroga
401,52.194244,20.867855,13:31:11,6,7242,13:30:00,1.1833333333333333,4343,52,Keniga
189,52.1829947,20.9800624,13:31:10,13,7247,13:30:00,1.1666666666666667,4037,03,Sasanki
507,52.2252995,21.073103,13:31:14,2,7302,13:30:00,1.2333333333333334,2143,01,Afrykańska
402,52.24028,21.156046,13:31:14,3,7309,13:31:00,0.23333333333333334,2064,04,Marysin
125,52.20623,21.17494,13:31:10,1,7313,13:31:00,0.16666666666666666,2028,01,Pożaryskiego
520,52.239399,21.153408,13:31:10,8,7315,13:28:00,3.1666666666666665,2063,02,Sezam
182,52.237991,21.09948,13:31:07,6,7322,13:33:00,-1.8833333333333333,2107,04,Łukowska
507,52.229534,21.005358,13:31:11,4,7331,13:32:00,-0.8166666666666667,7002,16,Dw.Centralny
509,52.2626535,21.0218144,13:31:14,9,7706,13:25:00,6.233333333333333,1006,09,rondo Starzyńskiego
172,52.1806152,21.0541037,13:31:14,2,7710,13:30:00,1.2333333333333334,3093,01,Batumi
517,52.2229449,21.0433307,13:31:14,5,7712,13:33:00,-1.7666666666666666,7076,07,Torwar
517,52.2182109,20.9671782,13:31:14,8,7720,13:31:00,0.23333333333333334,4044,01,Dw.Zachodni
189,52.1710452,21.0418932,13:31:14,11,7723,13:25:00,6.233333333333333,3098,02,Nowoursynowska
189,52.1712869,21.0403552,13:31:15,7,7729,13:28:00,3.25,3098,05,Nowoursynowska
523,52.2196671,21.0268925,13:31:14,1,7730,13:32:00,-0.7666666666666667,7037,55,pl.Na Rozdrożu
521,52.2078879,20.9638484,13:31:14,3,7735,13:33:00,-1.7666666666666666,4119,03,Szczęśliwice
182,52.2362634,21.0872225,13:31:14,3,7736,13:30:00,1.2333333333333334,2101,01,Poligonowa
525,52.2197074,21.0272007,13:31:14,3,7747,13:30:00,1.2333333333333334,7037,55,pl.Na Rozdrożu
509,52.2254787,21.092916,13:31:14,7,7748,13:28:00,3.2333333333333334,2146,04,Bora-Komorowskiego
509,52.3164764,20.9595,13:31:14,15,7751,13:26:00,5.233333333333333,1256,02,Myśliborska
125,52.2426418,21.1010666,13:31:13,5,7757,13:30:00,1.2166666666666666,2011,01,pl.Szembeka
402,52.2182023,21.0981375,13:31:15,2,7759,13:29:00,2.25,2205,03,most Siekierkowski
250,52.291119,20.927677,13:31:14,3,777,13:33:00,-1.7666666666666666,6059,22,Metro Młociny
750,52.3757586,20.8049402,13:31:14,2,779,13:30:00,1.2333333333333334,6646,02,Pieńków-Wieś
125,52.2260329,21.1551286,13:31:14,2,7806,13:25:00,6.233333333333333,2019,02,Trawiasta
202,52.2474934,21.0512071,13:31:13,541,7808,13:26:00,5.216666666666667,2002,01,Lubelska
145,52.281243,21.112208,13:31:09,1,7833,13:26:00,5.15,1222,01,Cmentarz
502,52.214435,21.2174403,13:31:13,462,7834,13:33:00,-1.7833333333333334,2440,05,Stara Miłosna (Graniczna)
151,52.2222837,21.0157977,13:31:15,2,7842,13:31:00,0.25,7011,01,pl.Konstytucji
402,52.1779471,21.0031066,13:31:15,7,7845,13:32:00,-0.75,3243,01,rondo Unii Europejskiej
143,52.261836,21.173411,13:30:54,7,7846,13:30:00,0.9,2262,01,Topograficzna
125,52.2470827,21.0430959,13:31:15,4,7850,13:24:00,7.25,1231,01,Metro Stadion Narodowy
145,52.2903239,21.0188227,13:31:14,3,7853,13:32:00,-0.7666666666666667,1158,01,Bazyliańska
525,52.22969,21.0037748,13:31:11,4,7878,13:34:00,-2.816666666666667,7002,21,Dw.Centralny
521,52.1593762,21.2047124,13:31:15,6,7881,13:32:00,-0.75,2052,03,Falenica
L48,52.2374963,21.2578456,13:31:13,1,80101,13:29:00,2.216666666666667,2852,04,Mariańska
L38,52.3250051,21.2855175,13:30:32,1,80111,13:31:00,-0.4666666666666667,1744,02,Majdan
L45,52.3449121,21.0981481,13:31:13,1,80115,13:30:00,1.2166666666666666,1535,01,Parkowa
L35,52.3708011,21.3166121,13:31:11,1,80118,13:31:00,0.18333333333333332,1742,02,Stare Grabie-Szkoła
504,52.1455286,21.0435166,13:31:12,2,8301,13:30:00,1.2,3403,02,Warchałowskiego
148,52.157966,20.9865911,13:31:10,2,8303,13:31:00,0.16666666666666666,4147,01,Terminal Cargo
317,52.1846935,20.9599315,13:31:12,5,8307,13:28:00,3.2,4141,02,Ogród Działkowy im.Warneńczyka
148,52.150287,21.0465461,13:31:06,1,8314,13:31:00,0.1,3280,01,Metro Imielin
710,52.1311763,21.0774663,13:31:13,6,8319,13:30:00,1.2166666666666666,3423,02,Rosnowskiego
136,52.2475551,20.9653828,13:31:13,12,8321,13:23:00,8.216666666666667,5124,02,Ostroroga
709,52.1266048,21.017987,13:31:13,8,8326,13:29:00,2.216666666666667,3018,01,Łagiewnicka
709,52.0916526,21.0188213,13:31:12,7,8336,13:28:00,3.2,3191,01,Iwiczna
127,52.231355,21.018781,13:31:07,6,8349,13:32:00,-0.8833333333333333,7033,02,Krucza
501,52.2223283,21.0167933,13:31:04,6,8351,13:28:00,3.066666666666667,7011,02,pl.Konstytucji
522,52.2282,21.0033967,13:31:05,6,8360,13:29:00,2.0833333333333335,7002,02,Dw.Centralny
519,52.1321667,21.101035,13:31:14,3,8367,13:18:00,13.233333333333333,3048,01,Czekoladowa
402,52.1797117,20.9949,13:31:13,9,8368,13:24:00,7.216666666666667,3250,02,Postępu
120,52.338165,21.047209,13:31:14,8,8450,13:30:00,1.2333333333333334,1346,02,Pszeniczna
527,52.316345,21.059658,13:31:09,514,8458,13:27:00,4.15,1359,04,os.Derby
138,52.174526,21.002584,13:31:13,8,8460,13:26:00,5.216666666666667,3244,01,Cybernetyki
217,52.178589,21.026624,13:31:04,4,8502,13:30:00,1.0666666666666667,3037,02,Podbipięty
217,52.1694933,21.0680017,13:31:02,2,8504,13:32:00,-0.9666666666666667,3042,03,Sobieskiego
501,52.228961,21.002466,13:31:00,5,8505,13:33:00,-2.0,7002,27,Dw.Centralny
165,52.1797633,21.01282,13:31:08,1,8507,13:30:00,1.1333333333333333,3113,04,Smoluchowskiego
127,52.221481,20.977358,13:31:11,5,8510,13:29:00,2.183333333333333,4042,02,Białobrzeska
174,52.173443,21.012068,13:31:00,3,8511,13:26:00,5.0,3248,03,Bełdan
709,52.0769017,21.0260983,13:31:03,429,8518,13:32:00,-0.95,3163,01,Szkolna
501,52.211068,21.021249,13:31:11,4,8520,13:30:00,1.1833333333333333,3480,51,Goworka
138,52.260604,21.100543,13:31:00,2,8522,13:29:00,2.0,1043,01,Utrata
138,52.21683,21.0157083,13:31:00,5,8523,13:27:00,4.0,7036,02,DS Riviera
174,52.2035433,21.010025,13:31:07,6,8528,13:29:00,2.1166666666666667,3229,02,Madalińskiego
148,52.149418,21.044658,13:30:54,4,8536,13:30:00,0.9,3280,02,Metro Imielin
521,52.215015,20.979785,13:31:09,4,8574,13:26:00,5.15,4004,02,Och-Teatr
160,52.318734,21.05825,13:30:57,519,8590,13:31:00,-0.05,1358,01,os.Derby III
138,52.2122065,21.019182,13:31:08,9,8804,13:28:00,3.1333333333333333,3001,01,pl.Unii Lubelskiej
520,52.2412895,21.1346151,13:31:10,6,8828,13:30:00,1.1666666666666667,2059,01,Okularowa
502,52.2188415,21.015261,13:31:12,466,8836,13:31:00,0.2,7006,12,Metro Politechnika
188,52.248548,21.084381,13:31:02,4,8855,13:28:00,3.033333333333333,2113,01,Dwernickiego
240,52.338351,21.1187368,13:31:11,3,8856,13:31:00,0.18333333333333332,1240,03,Pustelnik
500,52.2575146,20.9939066,13:31:10,5,8862,13:30:00,1.1666666666666667,7019,03,Dw.Gdański
500,52.2693723,21.0392953,13:31:10,4,8867,13:26:00,5.166666666666667,1077,02,rondo Żaba
162,52.2609581,21.0308891,13:31:14,3,8869,13:31:00,0.23333333333333334,1005,08,pl.Hallera
138,52.261223,21.054126,13:31:00,4,8870,13:31:00,0.0,1160,02,Wołomińska
140,52.3200271,21.102409,13:31:14,3,8871,13:31:00,0.23333333333333334,1352,01,Fabryczna
738,52.403539,21.196051,13:31:07,5,8873,13:13:00,18.116666666666667,1680,01,P+R Radzymin
245,52.2861356,21.0952978,13:31:07,2,8876,13:29:00,2.1166666666666667,1065,02,Klamrowa
148,52.169212,20.9790078,13:31:06,3,8880,13:27:00,4.1,4203,02,Bennetta
172,52.1974235,21.0239531,13:31:06,1,8883,13:29:00,2.1,3005,01,Park Dreszera
504,52.2111311,20.9884143,13:31:06,9,8889,13:27:00,4.1,4030,02,Banacha-Szpital
187,52.1813783,21.0691125,13:31:16,8,8890,13:32:00,-0.7333333333333333,3065,06,Sadyba
262,52.286423,21.083488,13:31:13,1,9062,13:28:00,3.216666666666667,1304,02,Potulicka
104,52.317829,21.036102,13:31:15,2,9071,13:31:00,0.25,1354,01,Echa Leśne
211,52.339863,20.940191,13:31:14,3,9074,13:29:00,2.2333333333333334,1405,01,Dzierzgońska
211,52.315529,20.961987,13:30:51,1,9076,13:30:00,0.85,1250,02,Porajów
211,52.33168,20.953159,13:31:09,012,9077,13:32:00,-0.85,1316,02,Ćwiklińskiej
104,52.334858,21.033365,13:31:15,1,9086,13:33:00,-1.75,1176,01,Brzeziny
161,52.183884,21.190523,13:30:51,1,9089,13:31:00,-0.15,2043,05,PKP Radość
201,52.2605971,20.9250683,13:31:14,2,9203,13:31:00,0.23333333333333334,5161,15,Nowe Bemowo
264,52.1678281,21.0838001,13:31:12,1,9210,13:33:00,-1.8,3044,03,Wilanów
349,52.229062,20.9144998,13:31:12,1,9215,13:28:00,3.2,5058,04,Hala Wola
133,52.355631,20.982241,13:31:12,348,9220,13:32:00,-0.8,1116,01,Choszczówka
211,52.2915455,21.0009968,13:31:15,5,9232,13:32:00,-0.75,1013,14,Żerań FSO
164,52.1457861,21.1387716,13:31:13,3,9245,13:34:00,-2.783333333333333,3159,02,Kępa Zawadowska
135,52.265106,21.041746,13:31:12,1,9318,13:30:00,1.2,1070,02,Kamienna
179,52.139652,21.056587,13:31:13,3,9325,13:31:00,0.21666666666666667,3281,02,Metro Natolin
142,52.232941,21.130243,13:31:14,1,9329,13:32:00,-0.7666666666666667,2016,01,Świecka
198,52.250507,21.22308,13:31:13,3,9332,13:30:00,1.2166666666666666,2282,05,Armii Krajowej
256,52.29216,21.049402,13:31:11,2,9337,13:30:00,1.1833333333333333,1146,03,Metro Kondratowicza
196,52.256828,21.177284,13:31:11,1,9340,13:19:00,12.183333333333334,2086,02,Rembertów-Kolonia
179,52.131298,21.0648,13:31:14,51,9341,13:30:00,1.2333333333333334,3282,04,Metro Kabaty
234,52.33691,21.046907,13:31:14,2,9344,13:31:00,0.23333333333333334,1346,51,Pszeniczna
179,52.142521,21.025414,13:31:14,5,9348,13:32:00,-0.7666666666666667,3292,01,CH Ursynów
198,52.220802,21.243113,13:31:13,1,9350,13:32:00,-0.7833333333333333,2275,01,Stara Miłosna (Ułańska)
739,52.080502,21.039646,13:31:11,3,9354,13:33:00,-1.8166666666666667,3795,01,Julianowska-Cmentarz
157,52.232548,20.992229,13:31:06,3,9411,13:27:00,4.1,5039,06,Norblin
103,52.2248,20.969284,13:31:14,3,9413,13:32:00,-0.7666666666666667,5119,01,Brylowska
152,52.336044,20.988667,13:30:54,4,9416,13:28:00,2.9,1218,01,Sadkowska
103,52.289726,20.931707,13:31:15,6,9418,13:32:00,-0.75,6059,01,Metro Młociny
157,52.289902,20.976418,13:31:04,10,9429,13:31:00,0.06666666666666667,6082,06,Gwiaździsta
516,52.334034,20.942003,13:31:11,3,9437,13:33:00,-1.8166666666666667,1253,07,Nowodwory
516,52.303795,20.989197,13:31:13,5,9446,13:31:00,0.21666666666666667,1016,02,Konwaliowa
157,52.226028,20.993351,13:31:11,7,9455,13:27:00,4.183333333333334,4052,02,pl.Starynkiewicza
159,52.2171155,20.963909,13:31:15,1,9508,13:31:00,0.25,4045,05,rondo Zesłańców Syberyjskich
159,52.207132667,21.050050167,13:31:15,8,9510,13:29:00,2.25,3058,03,Sielce
194,52.2231,20.928372333,13:31:13,1,9513,13:31:00,0.21666666666666667,5021,02,Fort Wola
220,52.220150667,20.896988167,13:31:14,4,9514,13:26:00,5.233333333333333,5045,01,Sternicza
220,52.177531667,20.9149985,13:31:13,07,9526,13:34:00,-2.783333333333333,4327,71,Rebusowa
715,52.111979833,20.985390167,13:31:10,55,9529,13:28:00,3.1666666666666665,4182,02,Zgorzała
159,52.223326833,20.983208333,13:31:14,3,9533,13:28:00,3.2333333333333334,4041,02,Spiska
715,52.150571333,20.929146833,13:30:52,53,9536,13:30:00,0.8666666666666667,4206,01,Stadion
737,52.162279,21.034678833,13:31:13,56,9537,13:31:00,0.21666666666666667,3120,07,Ursynów Płn.
194,52.200878833,20.896213167,13:31:14,65,9542,13:29:00,2.2333333333333334,4216,02,Ursus-Ratusz
220,52.206376167,20.891846167,13:31:13,2,9552,13:31:00,0.21666666666666667,4129,04,PKP Ursus Płn.
159,52.2229905,21.004098,13:31:13,7,9555,13:27:00,4.216666666666667,7089,01,Koszykowa
212,52.276108,21.066235,13:31:13,2,9672,13:31:00,0.21666666666666667,1057,01,Jórskiego
212,52.269428,21.05106,13:31:15,5,9678,13:30:00,1.25,1137,02,Metro Targówek Mieszkaniowy
110,52.276367,20.954159,13:31:13,71,9679,13:30:00,1.2166666666666666,6020,02,Perzyńskiego
212,52.262764,21.034697,13:31:13,1,9693,13:27:00,4.216666666666667,1292,01,Szymanowskiego
185,52.16999,21.03988,13:31:10,4,9805,13:20:00,11.166666666666666,3098,01,Nowoursynowska
131,52.22823,21.00345,13:31:12,4,9807,13:30:00,1.2,7002,02,Dw.Centralny
131,52.18277,21.06842,13:31:15,8,9815,13:31:00,0.25,3065,02,Sadyba
185,52.28728,20.97674,13:31:11,8,9816,13:31:00,0.18333333333333332,6082,04,Gwiaździsta
131,52.20864,21.029427,13:31:13,7,9825,13:31:00,0.21666666666666667,3026,52,Spacerowa
185,52.15552,21.04864,13:31:14,1,9826,13:30:00,1.2333333333333334,3122,02,Teligi
185,52.14269,21.02195,13:31:13,2,9828,13:32:00,-0.7833333333333333,3292,04,CH Ursynów
185,52.21196,21.046982,13:31:09,6,9829,13:31:00,0.15,3057,01,Bartycka
185,52.27573,20.980942,13:31:14,432,9831,13:31:00,0.23333333333333334,6077,06,Marymont-Potok
185,52.229294,21.04207,13:31:10,11,9839,13:28:00,3.1666666666666665,7098,02,Pomnik Sapera
131,52.20377,21.04966,13:31:10,6,9840,13:32:00,-0.8333333333333334,3059,02,Chełmska
167,52.20707,21.04716,13:31:14,3,9841,13:25:00,6.233333333333333,3058,54,Sielce
167,52.2083561,21.0825016,13:31:15,4,9842,13:31:00,0.25,3308,03,Siekierki-Sanktuarium
167,52.24058,20.92962,13:31:10,12,9846,13:25:00,6.166666666666667,5032,02,Metro Ulrychów
167,52.20844,21.0081,13:31:13,2,9851,13:24:00,7.216666666666667,3228,02,Metro Pole Mokotowskie
114,52.268478,20.986027,13:31:01,4,9903,13:24:00,7.016666666666667,6003,09,pl.Wilsona
114,52.271122,20.932726,13:30:53,8,9906,13:28:00,2.8833333333333333,6047,04,Conrada
186,52.320564,20.970747,13:30:35,2,9907,13:31:00,-0.4166666666666667,1020,03,Białołęka-Ratusz
114,52.310661,20.917053,13:30:46,7,9910,13:29:00,1.7666666666666666,6073,02,Żubrowa-UKSW
193,52.169399,20.998554,13:31:11,4,9912,13:31:00,0.18333333333333332,3267,03,Bokserska
186,52.237732,20.955637,13:30:50,9,9917,13:32:00,-1.1666666666666667,5028,03,Metro Młynów
210,52.291969,20.93088,13:31:11,2,9932,13:30:00,1.1833333333333333,6059,03,Metro Młociny
114,52.265732,20.974714,13:30:48,9,9934,13:31:00,-0.2,6094,06,ks.Popiełuszki
114,52.288094,21.029606,13:31:14,1,9938,13:28:00,3.2333333333333334,1083,01,Rembielińska
193,52.155609,21.035448,13:31:10,1,9940,13:30:00,1.1666666666666667,3132,03,Metro Stokłosy
186,52.210171,20.980381,13:31:14,494,9941,13:28:00,3.2333333333333334,4108,01,Banacha
193,52.169239,21.041388,13:31:12,3,9950,13:29:00,2.2,3098,03,Nowoursynowska
186,52.334175,20.942242,13:31:13,12,9954,13:33:00,-1.7833333333333334,1253,09,Nowodwory
219,52.1940665,21.1625063,13:32:20,1,1001,13:34:00,-1.6666666666666667,2403,02,Tadżycka
213,52.1617198,21.2143755,13:32:19,2,1004,13:33:00,-0.6833333333333333,2160,01,Bystrzycka
213,52.214181,21.1340028,13:32:18,3,1005,13:34:00,-1.7,2188,04,Lucerny
225,52.2597336,21.1550013,13:32:21,04,1007,13:28:00,4.35,2082,02,Kordiana
225,52.2243121,21.0966841,13:32:22,501,1009,13:32:00,0.36666666666666664,2147,02,Horbaczewskiego
108,52.1821157,21.0564586,13:32:23,2,1034,13:29:00,3.3833333333333333,3033,55,św.Bonifacego
208,52.202813,20.969223,13:32:17,05,1036,13:33:00,-0.7166666666666667,4007,02,Korotyńskiego
108,52.2127769,21.0593539,13:32:22,3,1038,13:30:00,2.3666666666666667,3069,01,Budexpo
107,52.229563,21.016886,13:32:17,4,1044,13:23:00,9.283333333333333,7033,04,Krucza
107,52.244408,20.990114,13:32:22,3,1063,13:21:00,11.366666666666667,7082,04,Nowolipki
107,52.1970874,21.05071,13:32:22,6,1066,13:32:00,0.36666666666666664,3060,03,al.Witosa
173,52.2434675,21.0962468,13:32:21,6,1117,13:29:00,3.35,2010,02,Wspólna Droga
173,52.2143716,21.2175758,13:32:17,2,1118,13:35:00,-2.716666666666667,2440,02,Stara Miłosna (Graniczna)
106,52.23283,20.980246,13:32:21,6,1202,13:32:00,0.35,5037,01,Muzeum Powstania Warszawskiego
263,52.1807245,21.0542509,13:32:23,2,1211,13:31:00,1.3833333333333333,3093,01,Batumi
106,52.2463675,21.0194129,13:32:23,4,1219,13:32:00,0.38333333333333336,7059,01,Mariensztat
153,52.256863,21.177029,13:32:21,1,1412,13:34:00,-1.65,2086,02,Rembertów-Kolonia
119,52.206139,21.175846,13:32:23,1,1413,13:27:00,5.383333333333334,2028,02,Pożaryskiego
173,52.251987,21.065914,13:32:19,7,1422,13:33:00,-0.6833333333333333,2118,02,Chodakowska
173,52.249558,21.244722,13:32:18,4,1426,13:29:00,3.3,2285,02,Wola Grzybowska
338,52.2634356,21.0567716,13:32:21,04,1500,13:31:00,1.35,1035,02,Naczelnikowska
338,52.2596936,21.0271168,13:32:19,05,1501,13:32:00,0.31666666666666665,1005,18,pl.Hallera
168,52.202348,21.004791,13:32:07,6,1523,13:24:00,8.116666666666667,3125,02,Łowicka
117,52.222198,21.102436,13:32:16,5,1528,13:30:00,2.2666666666666666,2148,01,Gocław
166,52.24672,21.047603,13:32:11,6,1532,13:22:00,10.183333333333334,2001,02,al.Zieleniecka
218,52.1797767,21.0242683,13:32:14,2,1533,13:34:00,-1.7666666666666666,3009,16,Metro Wilanowska
106,52.2478417,20.9651233,13:32:20,1,1534,13:19:00,13.333333333333334,5124,02,Ostroroga
156,52.283835,20.94557,13:32:12,4,1540,13:31:00,1.2,6054,02,Oczapowskiego
166,52.227029,21.023278,13:32:06,4,1542,13:27:00,5.1,7040,01,pl.Trzech Krzyży
169,52.2506033,21.043805,13:32:14,3,1544,13:31:00,1.2333333333333334,1001,07,Kijowska
166,52.1625167,21.047815,13:32:08,343,1546,13:29:00,3.1333333333333333,3100,01,SGGW-Rektorat
170,52.2709833,21.0937867,13:32:18,06,1550,13:35:00,-2.7,1051,01,Elsnerów
123,52.2228817,21.0869583,13:32:11,6,1554,13:28:00,4.183333333333334,2252,01,os.Jantar
156,52.2530601,21.0522115,13:32:19,1,1800,13:30:00,2.316666666666667,1028,06,Dw.Wschodni (Kijowska)
118,52.2397651,21.0268,13:32:20,3,1809,13:30:00,2.3333333333333335,7062,01,Zajęcza
303,52.2810041,20.9399075,13:32:20,3,1810,13:33:00,-0.6666666666666666,6097,01,Schroegera
169,52.3001756,21.0418628,13:32:19,1,1814,13:35:00,-2.683333333333333,1152,06,Bródno-Podgrodzie
115,52.213934,21.165638,13:32:06,1,1835,13:34:00,-1.9,2026,02,IX Poprzeczna
166,52.2229328,21.024374,13:32:18,7,1844,13:30:00,2.3,7038,02,Piękna
173,52.2349,21.1258946,13:32:13,9,1849,13:31:00,1.2166666666666666,2015,01,Płowiecka
183,52.2387565,21.191721,13:32:19,3,1857,13:33:00,-0.6833333333333333,2379,01,Zielona
222,52.18903,21.007161,13:32:07,5,1906,13:33:00,-0.8833333333333333,3116,06,Samochodowa
222,52.2446844,21.0050117,13:32:23,2,1910,13:35:00,-2.6166666666666667,7101,01,Bielańska
139,52.167721,21.076626,13:32:22,65,1914,13:35:00,-2.6333333333333333,3043,01,Królowej Marysieńki
724,52.128975,21.068064,13:32:19,667,2002,13:35:00,-2.683333333333333,3400,06,os.Kabaty
402,52.188122,21.04591,13:32:22,1,2004,13:23:00,9.366666666666667,3030,53,Tor Stegny
189,52.1981862,20.9200164,13:32:22,14,2005,13:27:00,5.366666666666666,4091,01,Dojazdowa
189,52.2388809,20.9008279,13:32:20,1,2008,13:35:00,-2.6666666666666665,5050,71,os.Górczewska
189,52.194443,20.936678,13:32:21,5,2010,13:32:00,0.35,4089,02,WKD Raków
L50,52.1841581,21.3057519,13:32:22,2,20174,13:31:00,1.3666666666666667,2380,01,Stefanówka
710,52.102451,21.114368,13:32:23,5,2020,13:35:00,-2.6166666666666667,3188,01,Klarysew
162,52.190521,21.082748,13:32:22,7,2022,13:22:00,10.366666666666667,3080,01,Statkowskiego
189,52.173084,21.021042,13:32:23,12,2031,13:29:00,3.3833333333333333,3011,05,al.Lotników
517,52.229794,21.010466,13:32:15,4,2202,13:31:00,1.25,7013,06,Centrum
517,52.1941492,20.9020179,13:32:22,2,2205,13:28:00,4.366666666666666,4125,02,Skoroszewska
716,52.194679,20.86186,13:32:21,61,2217,13:32:00,0.35,4220,02,Władysława Hermana
517,52.194363,20.867788,13:32:20,10,2218,13:33:00,-0.6666666666666666,4343,52,Keniga
187,52.1996359,20.9146532,13:32:23,1,2230,13:32:00,0.38333333333333336,4092,03,Ryżowa
523,52.2395981,20.9168267,13:32:22,8,2234,13:33:00,-0.6333333333333333,5033,02,Konarskiego
105,52.2289244,20.9710469,13:32:22,1,2242,13:18:00,14.366666666666667,5042,01,Szpital Wolski
523,52.258457,20.898327,13:32:23,5,2243,13:35:00,-2.6166666666666667,5055,07,Stare Bemowo
184,52.252892,20.923981,13:32:22,493,2253,13:26:00,6.366666666666666,5107,01,Widawska
401,52.1799922,21.023908,13:32:22,3,2255,13:35:00,-2.6333333333333333,3009,17,Metro Wilanowska
136,52.2399102,20.965272,13:32:23,11,2258,13:31:00,1.3833333333333333,5112,01,Grenady
112,52.3043608,21.0823853,13:32:19,7,3402,13:34:00,-1.6833333333333333,1234,04,CH Marki
731,52.4104731,20.9513615,13:32:23,480,3404,13:29:00,3.3833333333333333,1373,01,al.Sybiraków
500,52.300184,21.0417793,13:32:05,2,3405,13:35:00,-2.9166666666666665,1152,04,Bródno-Podgrodzie
Z26,52.2250299,20.93081,13:32:17,3,3414,13:32:00,0.2833333333333333,5011,07,Cm.Wolski
145,52.2343771,21.1280678,13:32:20,8,3432,13:31:00,1.3333333333333333,2015,04,Płowiecka
140,52.2766363,21.0527861,13:32:23,2,3435,13:35:00,-2.6166666666666667,1140,09,Metro Trocka
112,52.2706285,20.9334933,13:32:21,8,3451,13:33:00,-0.65,6047,01,Conrada
190,52.2882443,21.0763731,13:32:23,8,3453,13:26:00,6.383333333333334,1060,04,Młodzieńcza
245,52.280528,21.13116,13:32:13,1,3459,13:18:00,14.216666666666667,1474,04,Maczka
509,52.226978,21.0936893,13:32:18,5,3463,13:33:00,-0.7,2149,01,Umińskiego
723,52.37929,20.9181525,13:32:19,476,3466,13:32:00,0.31666666666666665,1464,01,Królewska
129,52.1959317,20.8972916,13:32:23,2,4200,13:26:00,6.383333333333334,4095,02,Szancera
249,52.246674,20.940281,13:32:22,676,4211,13:35:00,-2.6333333333333333,5073,05,Koło
207,52.195087,20.887079,13:32:22,2,4216,13:30:00,2.3666666666666667,4217,04,PKP Ursus
207,52.2003241,20.8929249,13:32:23,1,4217,13:33:00,-0.6166666666666667,4216,03,Ursus-Ratusz
154,52.1835189,20.9639497,13:32:22,1,4221,13:16:00,16.366666666666667,4198,02,Okęcie Business Park
207,52.193775,20.883568,13:32:19,3,4223,13:32:00,0.31666666666666665,4100,01,Malinowa
154,52.2170524,20.963773,13:32:23,3,4224,13:34:00,-1.6166666666666667,4045,71,rondo Zesłańców Syberyjskich
122,52.229172,20.915047,13:32:19,9,4225,13:27:00,5.316666666666666,5058,04,Hala Wola
255,52.224087,20.936497,13:32:16,3,4232,13:32:00,0.26666666666666666,5010,53,Sowińskiego
197,52.260818,20.939713,13:32:23,4,4238,13:32:00,0.38333333333333336,5164,02,Ogrody Działkowe Piaski
147,52.2170115,21.2426225,13:32:23,2,4306,13:33:00,-0.6166666666666667,2349,01,Rumiankowa
146,52.1914262,21.1232292,13:32:23,1,4307,13:30:00,2.3833333333333333,2210,01,Jeziorowa
147,52.2052669,21.1129597,13:32:23,1,4316,13:30:00,2.3833333333333333,2208,02,Kanał Nowe Ujście
153,52.2573485,21.1604106,13:32:23,3,4319,13:31:00,1.3833333333333333,2070,08,PKP Rembertów
249,52.2441762,20.9479145,13:32:23,2,4331,13:30:00,2.3833333333333333,5023,02,ks.Sitnika
197,52.2250672,20.930811,13:32:23,1,4333,13:34:00,-1.6166666666666667,5011,08,Cm.Wolski
714,52.2438894,20.8833395,13:32:23,2,4334,13:31:00,1.3833333333333333,5017,02,Niska
729,52.2391747,20.904776,13:32:23,1,4339,13:32:00,0.38333333333333336,5035,02,Klemensiewicza
173,52.25053,21.066481,13:32:23,8,4402,13:31:00,1.3833333333333333,2117,01,Mińska
122,52.262865,20.9526916,13:32:19,1,4404,13:30:00,2.316666666666667,6129,02,gen.Maczka
118,52.219124,21.015532,13:32:20,1,4405,13:17:00,15.333333333333334,7006,09,Metro Politechnika
126,52.288216,21.039103,13:32:17,2,4409,13:30:00,2.283333333333333,1155,01,Chodecka
240,52.311474,21.063885,13:32:19,2,4410,13:32:00,0.31666666666666665,1180,01,os.Lewandów I
181,52.282444,20.972311,13:32:23,3,4414,13:33:00,-0.6166666666666667,6136,02,Sobocka
240,52.318123,21.067089,13:32:23,1,4416,13:32:00,0.38333333333333336,1181,02,Okrągła
170,52.258438,21.034555,13:32:21,4,4427,13:33:00,-0.65,1066,01,Inżynierska
123,52.237984,21.099468,13:32:20,3,4429,13:24:00,8.333333333333334,2107,02,Łukowska
171,52.2600375,20.917585,13:32:16,453,5219,13:29:00,3.2666666666666666,5214,01,Zachodzącego Słońca
124,52.1629896,20.9308284,13:32:21,2,5221,13:33:00,-0.65,4019,04,Na Skraju
171,52.2384419,20.9809639,13:32:15,4,5222,13:32:00,0.25,5003,10,Okopowa
401,52.1995641,20.914844,13:32:14,5,5225,13:29:00,3.2333333333333334,4092,03,Ryżowa
177,52.2377686,20.9134752,13:32:18,1,5226,13:31:00,1.3,5034,03,Metro Bemowo
172,52.202381,20.974064,13:32:22,6,5230,13:32:00,0.36666666666666664,4109,02,Siemieńskiego
188,52.2299719,21.0686905,13:32:20,6,5232,13:32:00,0.3333333333333333,2098,02,Międzynarodowa
521,52.241496,21.1068385,13:32:16,5,5234,13:29:00,3.2666666666666666,2012,01,Żółkiewskiego
716,52.1949826,20.8625652,13:32:19,63,5244,13:32:00,0.31666666666666665,4220,01,Władysława Hermana
184,52.2117135,20.966455,13:32:23,6,5245,13:32:00,0.38333333333333336,4338,01,Dobosza
171,52.2295574,21.0311149,13:32:21,6,5251,13:30:00,2.35,7069,01,Książęca
317,52.1679485,21.0843394,13:32:02,2,5254,13:34:00,-1.9666666666666666,3044,06,Wilanów
500,52.281784,21.046503,13:32:23,1,5403,13:33:00,-0.6166666666666667,1528,01,Niwa
512,52.2529569,21.0521412,13:32:22,4,5407,13:35:00,-2.6333333333333333,1028,03,Dw.Wschodni (Kijowska)
738,52.276363,21.066452,13:32:20,4,5411,13:29:00,3.3333333333333335,1057,01,Jórskiego
132,52.315083,21.060373,13:32:15,2,5413,13:33:00,-0.75,1359,02,os.Derby
132,52.271984,20.968697,13:32:23,5,5414,13:28:00,4.383333333333334,6005,11,Metro Marymont
145,52.287384,21.07485,13:32:19,6,5428,13:25:00,7.316666666666666,1060,02,Młodzieńcza
190,52.2383169,20.9538589,13:32:17,5,5438,13:31:00,1.2833333333333334,5028,02,Metro Młynów
190,52.282742,21.071732,13:32:19,7,5440,13:31:00,1.3166666666666667,1059,01,Tużycka
190,52.30505,21.085403,13:32:22,12,5441,13:35:00,-2.6333333333333333,1234,01,CH Marki
527,52.292229,21.049919,13:32:20,513,5445,13:30:00,2.3333333333333335,1146,03,Metro Kondratowicza
190,52.2275106,20.897426,13:32:23,2,5458,13:31:00,1.3833333333333333,5047,03,Człuchowska
127,52.230128,21.013166,13:32:13,9,5881,13:29:00,3.216666666666667,7013,15,Centrum
503,52.148403,21.043356,13:32:19,3,5889,13:27:00,5.316666666666666,3139,03,Miklaszewskiego
128,52.201511,20.983557,13:32:21,334,5896,13:30:00,2.35,4032,04,Pruszkowska
175,52.240086,21.016687,13:32:19,405,5899,13:31:00,1.3166666666666667,7044,01,Uniwersytet
175,52.224178,20.989294,13:32:19,404,5908,13:32:00,0.31666666666666665,4001,15,pl.Zawiszy
116,52.171572,21.0663774,13:32:21,8,5912,13:27:00,5.35,3036,01,Instytut Neurologii
128,52.229655,21.010288,13:32:14,410,5913,13:31:00,1.2333333333333334,7013,06,Centrum
116,52.166538,21.08303,13:32:08,6,5923,13:27:00,5.133333333333334,3044,02,Wilanów
175,52.193203,20.981876,13:32:21,403,5925,13:27:00,5.35,4348,01,PKP Żwirki i Wigury
175,52.1753,20.9794,13:32:14,401,5928,13:31:00,1.2333333333333334,4039,02,Ośrodek Wojskowy
158,52.221657,20.977186,13:32:24,1,5930,13:34:00,-1.6,4042,02,Białobrzeska
111,52.237,21.0574,13:32:20,4,5944,13:33:00,-0.6666666666666666,2138,01,Adampolska
180,52.223282,21.024286,13:32:19,5,5949,13:32:00,0.31666666666666665,7038,02,Piękna
127,52.241711,21.024937,13:32:19,8,5958,13:28:00,4.316666666666666,7061,02,Biblioteka Uniwersytecka
127,52.243168,21.020494,13:32:21,7,5962,13:34:00,-1.65,7100,02,Browarna
180,52.203758,21.049669,13:32:19,6,5967,13:32:00,0.31666666666666665,3059,02,Chełmska
111,52.222298,21.103014,13:32:20,1,5968,13:31:00,1.3333333333333333,2148,01,Gocław
180,52.257175,20.966381,13:32:22,2,5970,13:26:00,6.366666666666666,6221,02,pl.Niemena
180,52.244736,21.014111,13:32:20,4,5973,13:30:00,2.3333333333333335,7046,02,pl.Zamkowy
116,52.275299,20.962832,13:32:22,13,5979,13:29:00,3.3666666666666667,6006,03,Metro Słodowiec
111,52.247665,20.989771,13:32:23,6,5980,13:33:00,-0.6166666666666667,7083,03,Anielewicza
518,52.2789,20.9775,13:32:21,2,5983,13:31:00,1.35,6133,03,os.Potok
116,52.196793,21.0397,13:32:20,9,5986,13:27:00,5.333333333333333,3028,51,Kostrzewskiego
518,52.317169,20.96195,13:32:19,6,5990,13:32:00,0.31666666666666665,1256,01,Myśliborska
L29,52.2677245,20.4626201,13:32:22,1,60056,13:32:00,0.36666666666666664,6817,01,Kampinos
L-6,52.2580363,20.8981183,13:32:00,1,60057,13:34:00,-2.0,5055,06,Stare Bemowo
184,52.253677,20.923933,13:32:23,1,6201,13:34:00,-1.6166666666666667,5107,02,Widawska
105,52.238979,20.900541,13:32:22,5,6219,13:34:00,-1.6333333333333333,5050,71,os.Górczewska
728,52.146198,20.911148,13:32:03,1,6232,13:27:00,5.05,4159,01,Puchały
177,52.202534,20.874886,13:32:23,4,6242,13:32:00,0.38333333333333336,4128,04,Posag 7 Panien
706,52.139595,20.90209,13:32:14,2,6244,13:27:00,5.233333333333333,4166,02,Janki
L14,52.0795808,21.2024296,13:32:21,1,70033,13:32:00,0.35,3854,01,Gassy-Pętla
L-3,52.0810166,20.9695055,13:32:20,02,70034,13:33:00,-0.6666666666666666,4270,01,Postępu
177,52.227596,20.89806,13:32:22,3,7200,13:29:00,3.3666666666666667,5047,03,Człuchowska
414,52.200554,20.94796,13:32:22,01,7212,13:32:00,0.36666666666666664,4106,02,Instalatorów
191,52.211716,20.975191,13:32:20,7,7214,13:31:00,1.3333333333333333,4005,06,Bitwy Warszawskiej 1920 r.
189,52.235157,20.896492,13:32:22,16,7222,13:29:00,3.3666666666666667,5049,01,Szobera
187,52.199158,20.913515,13:32:22,5,7223,13:32:00,0.36666666666666664,4092,04,Ryżowa
136,52.2479194,20.9652982,13:32:22,015,7240,13:31:00,1.3666666666666667,5124,02,Ostroroga
717,52.2016654,20.9371731,13:32:22,66,7253,13:28:00,4.366666666666666,4048,01,Popularna
189,52.198769,20.917864,13:32:21,4,7256,13:26:00,6.35,4091,02,Dojazdowa
507,52.2261481,21.079361,13:32:11,2,7302,13:31:00,1.1833333333333333,2144,01,Wał Gocławski
525,52.225993,21.160241,13:32:04,7,7303,13:31:00,1.0666666666666667,2020,01,Kajki
158,52.226166,20.995167,13:32:23,8,7304,13:30:00,2.3833333333333333,4052,01,pl.Starynkiewicza
402,52.239632,21.154434,13:32:21,3,7309,13:32:00,0.35,2064,01,Marysin
158,52.2370667,21.1048995,13:32:23,3,7311,13:31:00,1.3833333333333333,2106,01,Tarnowiecka
125,52.210442,21.170105,13:32:21,1,7313,13:32:00,0.35,2027,02,Czatów
182,52.21711,20.963768,13:32:17,9,7326,13:34:00,-1.7166666666666666,4045,05,rondo Zesłańców Syberyjskich
507,52.229591,21.005322,13:32:23,4,7331,13:32:00,0.38333333333333336,7002,16,Dw.Centralny
750,52.341866,20.883966,13:32:23,4,757,13:28:00,4.383333333333334,6810,01,Kościół
523,52.2384037,20.950103,13:32:23,3,7705,13:30:00,2.3833333333333333,5020,01,Park Moczydło
517,52.2229304,21.0433159,13:32:22,5,7712,13:33:00,-0.6333333333333333,7076,07,Torwar
136,52.1482281,21.0431654,13:32:23,7,7714,13:29:00,3.3833333333333333,3139,03,Miklaszewskiego
184,52.2369806,20.9480494,13:32:23,8,7727,13:30:00,2.3833333333333333,5019,01,Monte Cassino
523,52.2222054,21.0374082,13:32:23,1,7730,13:33:00,-0.6166666666666667,7071,01,Rozbrat
509,52.2897959,21.0032697,13:32:23,10,7733,13:29:00,3.3833333333333333,1013,01,Żerań FSO
521,52.2078737,20.9638586,13:32:23,3,7735,13:33:00,-0.6166666666666667,4119,03,Szczęśliwice
199,52.269121,21.179716,13:32:04,1,7745,13:35:00,-2.933333333333333,2451,01,Rembertów-Strzelnica
525,52.2223257,21.0376765,13:32:23,3,7747,13:31:00,1.3833333333333333,7071,01,Rozbrat
509,52.2274447,21.0942869,13:32:23,7,7748,13:29:00,3.3833333333333333,2149,03,Umińskiego
850,52.294327,20.945711,13:32:24,2,775,13:33:00,-0.6,6013,01,Przy Agorze
150,52.3241587,20.9106772,13:32:22,4,776,13:32:00,0.36666666666666664,6624,04,Buraków
250,52.291153,20.927658,13:32:23,3,777,13:33:00,-0.6166666666666667,6059,22,Metro Młociny
150,52.3462211,20.8570198,13:32:13,2,778,13:32:00,0.21666666666666667,6806,01,Instytut Ekologii PAN
145,52.2822765,21.1114183,13:32:23,7,7801,13:31:00,1.3833333333333333,1222,02,Cmentarz
182,52.2288209,21.0640509,13:32:23,7,7805,13:34:00,-1.6166666666666667,2097,02,Saska
202,52.2477842,21.048187,13:32:23,541,7808,13:27:00,5.383333333333334,2001,09,al.Zieleniecka
502,52.2359526,21.0883962,13:32:23,465,7814,13:34:00,-1.6166666666666667,2101,02,Poligonowa
507,52.2322199,21.022098,13:32:22,6,7815,13:29:00,3.3666666666666667,7041,02,Muzeum Narodowe
720,52.2426864,21.1010977,13:32:23,2,7825,13:31:00,1.3833333333333333,2011,01,pl.Szembeka
502,52.2144773,21.2174118,13:32:19,462,7834,13:33:00,-0.6833333333333333,2440,05,Stara Miłosna (Graniczna)
143,52.264201,21.169668,13:32:15,7,7846,13:32:00,0.25,2088,01,Rembertów-Akademia
704,52.2168261,21.3105641,13:32:19,1,7847,13:32:00,0.31666666666666665,2309,02,Konik Nowy
162,52.2367086,21.0266348,13:32:20,2,7852,13:31:00,1.3333333333333333,7067,03,Topiel
525,52.229657,21.0037688,13:32:23,4,7878,13:34:00,-1.6166666666666667,7002,21,Dw.Centralny
525,52.2083281,21.1965892,13:32:23,8,7879,13:35:00,-2.6166666666666667,2032,01,Międzylesie
521,52.159692,21.2047652,13:32:23,6,7881,13:32:00,0.38333333333333336,2052,03,Falenica
L40,52.3518231,21.2583933,13:32:20,2,80116,13:27:00,5.333333333333333,1393,01,os.Niepodległości
L45,52.3266901,21.1082798,13:32:24,02,80120,13:32:00,0.4,1238,02,Marki-Ratusz
504,52.1483599,21.0415803,13:32:20,2,8301,13:31:00,1.3333333333333333,3139,02,Miklaszewskiego
317,52.1850315,20.953253,13:32:19,5,8307,13:30:00,2.316666666666667,4012,02,Krakowiaków
127,52.2095486,20.9205156,13:32:24,2,8310,13:31:00,1.4,4225,01,Sympatyczna
141,52.198148,20.985443,13:32:11,10,8313,13:16:00,16.183333333333334,4033,03,Rakowiec
172,52.2099476,20.980312,13:32:21,9,8318,13:33:00,-0.65,4108,01,Banacha
710,52.1329703,21.0745418,13:32:18,6,8319,13:32:00,0.3,3287,04,Wąwozowa
136,52.2475531,20.965431,13:32:23,12,8321,13:23:00,9.383333333333333,5124,02,Ostroroga
709,52.1228295,21.0180291,13:32:23,8,8326,13:30:00,2.3833333333333333,3019,01,Pelikanów
710,52.0772355,21.0995231,13:32:22,2,8331,13:32:00,0.36666666666666664,3179,02,Skolimów
727,52.0771235,21.0259666,13:32:21,422,8338,13:30:00,2.35,3163,01,Szkolna
504,52.179684,20.995515,13:32:22,1,8355,13:30:00,2.3666666666666667,3250,02,Postępu
317,52.1736117,21.0189317,13:32:19,1,8363,13:33:00,-0.6833333333333333,3011,06,al.Lotników
402,52.1817233,20.9863017,13:32:06,9,8368,13:26:00,6.1,3254,02,PKP Służewiec
504,52.1523967,21.019325,13:32:08,5,8369,13:19:00,13.133333333333333,3013,03,Poleczki
202,52.244286,21.115641,13:32:11,542,8397,13:31:00,1.1833333333333333,2267,01,Podolska
120,52.333885,21.047272,13:32:21,6,8449,13:32:00,0.35,1318,01,Małego Rycerza
199,52.299133,21.042509,13:32:20,3,8457,13:32:00,0.3333333333333333,1152,01,Bródno-Podgrodzie
501,52.228878,21.002498,13:32:21,5,8505,13:33:00,-0.65,7002,27,Dw.Centralny
165,52.1780533,21.0057867,13:32:11,1,8507,13:32:00,0.18333333333333332,3249,02,Instytut Fizyki
709,52.0769017,21.0260983,13:32:08,429,8518,13:32:00,0.13333333333333333,3163,01,Szkolna
217,52.1578483,21.0756683,13:32:14,5,8537,13:32:00,0.23333333333333334,3385,02,Branickiego
136,52.17199,21.0049683,13:32:15,013,8538,13:32:00,0.25,3245,02,Gotarda
501,52.2016967,21.03408,13:32:23,1,8541,13:33:00,-0.6166666666666667,3027,04,Dolna
162,52.248175,21.0290136,13:32:13,5,8545,13:30:00,2.216666666666667,1589,02,Os.Panieńska
514,52.248645,21.2438367,13:32:16,3,8568,13:35:00,-2.7333333333333334,2285,03,Wola Grzybowska
525,52.236181,21.087231,13:32:16,319,8577,13:29:00,3.2666666666666666,2101,01,Poligonowa
509,52.32051,20.972225,13:32:19,11,8592,13:31:00,1.3166666666666667,1020,01,Białołęka-Ratusz
165,52.1701025,20.997877,13:32:14,4,8809,13:32:00,0.23333333333333334,3267,02,Bokserska
174,52.171166,21.009654,13:32:19,1,8810,13:29:00,3.316666666666667,3246,02,Orzycka
509,52.3316858,20.9412626,13:32:21,12,8814,13:32:00,0.35,1253,01,Nowodwory
140,52.3349981,21.1149413,13:32:15,1,8820,13:28:00,4.25,1239,02,Wspólna
520,52.2223398,21.0158696,13:32:20,2,8821,13:30:00,2.3333333333333335,7011,01,pl.Konstytucji
704,52.238023,21.1188768,13:32:23,2,8830,13:33:00,-0.6166666666666667,2014,01,Gocławek
502,52.2238218,21.2221291,13:32:20,1,8842,13:30:00,2.3333333333333335,2293,01,1.Praskiego Pułku
143,52.237874,21.1190656,13:32:19,6,8850,13:33:00,-0.6833333333333333,2014,01,Gocławek
523,52.2481438,21.0977418,13:32:18,15,8852,13:28:00,4.3,2110,02,Osiedle Młodych
138,52.2484055,21.0452203,13:32:19,1,8861,13:30:00,2.316666666666667,1001,01,Kijowska
138,52.2632745,21.0572046,13:32:16,4,8870,13:32:00,0.26666666666666666,1035,02,Naczelnikowska
140,52.317176,21.1000878,13:32:18,3,8871,13:32:00,0.3,1237,01,Szkolna
738,52.403539,21.196051,13:32:07,5,8873,13:13:00,19.116666666666667,1680,01,P+R Radzymin
520,52.2296713,21.0667638,13:32:20,5,8874,13:27:00,5.333333333333333,2098,01,Międzynarodowa
136,52.1861953,20.9929395,13:32:14,3,8881,13:31:00,1.2333333333333334,3260,04,Racjonalizacji
172,52.1965811,21.0184598,13:32:16,1,8883,13:31:00,1.2666666666666666,3108,02,Krasickiego
141,52.2065531,21.0430118,13:32:22,9,8899,13:19:00,13.366666666666667,3085,01,Iwicka
104,52.319065,21.032486,13:32:19,2,9071,13:32:00,0.31666666666666665,1172,02,Przyjazna
211,52.341763,20.942444,13:32:19,3,9074,13:30:00,2.316666666666667,1421,02,Tłuchowska
104,52.334816,21.033365,13:32:20,1,9086,13:33:00,-0.6666666666666666,1176,01,Brzeziny
161,52.184013,21.187058,13:32:21,1,9089,13:32:00,0.35,2043,03,PKP Radość
305,52.2385224,21.1491717,13:32:19,1,9201,13:31:00,1.3166666666666667,2062,02,Potockich
203,52.281001,20.923979,13:32:21,1,9206,13:33:00,-0.65,6026,06,Bogusławskiego
211,52.3483286,20.9254139,13:32:19,460,9208,13:35:00,-2.683333333333333,1944,01,Kępa Tarchomińska
264,52.1678253,21.083796,13:32:22,1,9210,13:33:00,-0.6333333333333333,3044,03,Wilanów
349,52.228458,20.9063065,13:32:21,1,9215,13:30:00,2.35,5108,02,Raginisa
203,52.2910233,20.9285405,13:32:18,472,9219,13:35:00,-2.7,6059,17,Metro Młociny
133,52.355612,20.982246,13:32:23,348,9220,13:32:00,0.38333333333333336,1116,01,Choszczówka
201,52.246633,20.939819,13:32:19,1,9226,13:30:00,2.316666666666667,5073,04,Koło
209,52.155909,21.034978,13:32:18,573,9228,13:31:00,1.3,3132,03,Metro Stokłosy
211,52.2918636,21.0013593,13:32:22,5,9232,13:32:00,0.36666666666666664,1013,14,Żerań FSO
164,52.190582,21.075813,13:32:23,2,9242,13:32:00,0.38333333333333336,3091,01,Sypniewska
164,52.1456062,21.1386573,13:32:19,3,9245,13:34:00,-1.6833333333333333,3159,02,Kępa Zawadowska
201,52.2613268,20.9407228,13:32:23,4,9251,13:32:00,0.38333333333333336,5164,01,Ogrody Działkowe Piaski
179,52.162083,21.036905,13:32:21,7,9312,13:35:00,-2.65,3120,05,Ursynów Płn.
179,52.142193,21.029863,13:32:22,10,9317,13:31:00,1.3666666666666667,3454,02,Indiry Gandhi
135,52.259514,21.027283,13:32:22,6,9323,13:35:00,-2.6333333333333333,1005,11,pl.Hallera
179,52.138943,21.054363,13:32:22,3,9325,13:32:00,0.36666666666666664,3194,02,Małcużyńskiego
198,52.251148,21.217426,13:32:23,3,9332,13:31:00,1.3833333333333333,2343,02,Moniuszki
739,52.115639,21.018496,13:32:19,2,9335,13:33:00,-0.6833333333333333,3021,02,Jagielska
256,52.295822,21.050806,13:32:17,2,9337,13:31:00,1.2833333333333334,1149,02,Knapika
196,52.25684,21.177263,13:32:22,1,9340,13:19:00,13.366666666666667,2086,02,Rembertów-Kolonia
179,52.131218,21.060518,13:32:20,51,9341,13:16:00,16.333333333333332,3283,02,Mielczarskiego
135,52.24609,21.072765,13:32:23,2,9343,13:27:00,5.383333333333334,2006,01,Międzyborska
198,52.216717,21.242077,13:32:22,1,9350,13:33:00,-0.6333333333333333,2349,01,Rumiankowa
739,52.08046,21.039579,13:32:22,3,9354,13:33:00,-0.6333333333333333,3795,01,Julianowska-Cmentarz
103,52.224838,20.969267,13:32:23,3,9413,13:32:00,0.38333333333333336,5119,01,Brylowska
103,52.271133,20.944208,13:32:16,5,9415,13:30:00,2.2666666666666666,6045,07,Piaski
103,52.250546,20.964966,13:32:22,2,9420,13:31:00,1.3666666666666667,5211,02,Powązki-VI Brama
157,52.251156,20.986362,13:31:56,430,9426,13:24:00,7.933333333333334,7084,03,Stawki
157,52.287483,20.976683,13:32:14,10,9429,13:19:00,13.233333333333333,6082,02,Gwiaździsta
326,52.299908,20.99312,13:32:23,2,9431,13:31:00,1.3833333333333333,1015,02,Kanał Żerański
326,52.337841,21.04711,13:32:17,4,9434,13:32:00,0.2833333333333333,1346,54,Pszeniczna
516,52.334026,20.942019,13:32:11,3,9437,13:33:00,-0.8166666666666667,1253,07,Nowodwory
157,52.241882,20.98818,13:32:03,8,9441,13:30:00,2.05,5154,01,Nowolipie
743,52.230003,20.802357,13:32:21,3,9451,13:33:00,-0.65,5215,03,Poniatowskiego
149,52.250855833,20.875231667,13:32:23,662,9503,13:31:00,1.3833333333333333,5082,02,Podkowińska
159,52.223199833,21.016552667,13:32:21,4,9507,13:32:00,0.35,7011,04,pl.Konstytucji
121,52.288363,20.93302,13:32:23,3,9509,13:31:00,1.3833333333333333,6057,01,Sokratesa
220,52.215900833,20.895983833,13:32:19,4,9514,13:27:00,5.316666666666666,5192,03,Lazurowa
220,52.25274,20.912524333,13:32:19,5,9517,13:31:00,1.3166666666666667,5063,04,Radiowa
159,52.1932345,21.085216667,13:32:21,6,9519,13:35:00,-2.65,3079,04,EC Siekierki
220,52.177518667,20.914996833,13:32:23,07,9526,13:34:00,-1.6166666666666667,4327,71,Rebusowa
194,52.207944,20.863664167,13:32:23,2,9532,13:30:00,2.3833333333333333,4149,01,PKP Gołąbki
159,52.221628333,20.977602833,13:32:19,3,9533,13:29:00,3.316666666666667,4042,02,Białobrzeska
715,52.1495815,20.9368705,13:32:22,53,9536,13:31:00,1.3666666666666667,4167,01,Rybie
707,52.076141167,21.0222615,13:32:21,1,9553,13:31:00,1.35,3430,02,Fabryczna
167,52.21634,20.99148,13:32:19,7,9806,13:26:00,6.316666666666666,4029,03,Pomnik Lotnika
131,52.2058,21.048592,13:32:22,12,9811,13:28:00,4.366666666666666,3058,01,Sielce
167,52.25879,20.8985,13:32:23,10,9812,13:32:00,0.38333333333333336,5055,02,Stare Bemowo
131,52.18622,21.064621,13:32:20,8,9815,13:33:00,-0.6666666666666666,3064,02,Goraszewska
185,52.157181,21.043862,13:32:18,1,9826,13:31:00,1.3,3121,02,Strzeleckiego
185,52.14295,21.02171,13:32:23,2,9828,13:32:00,0.38333333333333336,3292,04,CH Ursynów
185,52.27904,20.97701,13:32:21,432,9831,13:33:00,-0.65,6133,02,os.Potok
167,52.2089006,21.077336,13:32:22,4,9842,13:32:00,0.36666666666666664,3072,02,Siekierkowska
185,52.180344,21.05376,13:32:20,12,9845,13:26:00,6.333333333333333,3093,01,Batumi
131,52.20707,21.031571,13:32:21,13,9849,13:31:00,1.35,3026,53,Spacerowa
114,52.269543,20.988718,13:32:01,4,9903,13:26:00,6.016666666666667,6003,05,pl.Wilsona
186,52.318516,20.965616,13:32:05,2,9907,13:32:00,0.08333333333333333,1219,02,Milenijna
193,52.170605,21.003384,13:32:21,4,9912,13:32:00,0.35,3266,02,Jadźwingów
210,52.28833,20.868917,13:31:50,3,9926,13:33:00,-1.1666666666666667,6140,01,Sikorskiego
186,52.211525,20.975744,13:32:16,494,9941,13:30:00,2.2666666666666666,4005,06,Bitwy Warszawskiej 1920 r.
186,52.320698,20.972078,13:32:21,11,9944,13:32:00,0.35,1020,01,Białołęka-Ratusz
114,52.288975,21.040909,13:31:48,3,9951,13:25:00,6.8,1155,02,Chodecka
210,52.291061,20.928129,13:32:18,1,9953,13:35:00,-2.7,6059,19,Metro Młociny
186,52.334179,20.94223,13:32:18,12,9954,13:33:00,-0.7,1253,09,Nowodwory
219,52.195486,21.1703915,13:33:20,1,1001,13:36:00,-2.6666666666666665,2372,02,Juhasów
213,52.1616043,21.2137276,13:33:19,2,1004,13:33:00,0.31666666666666665,2160,01,Bystrzycka
213,52.2143313,21.131935,13:33:19,5,1012,13:29:00,4.316666666666666,2188,03,Lucerny
263,52.164574,21.108992,13:33:20,06,1026,13:36:00,-2.6666666666666665,3150,02,Syta
108,52.179649,21.052515,13:33:24,2,1034,13:31:00,2.4,3093,02,Batumi
208,52.202681,20.969174,13:33:17,05,1036,13:33:00,0.2833333333333333,4007,02,Korotyńskiego
107,52.2445167,20.9793667,13:33:12,2,1043,13:36:00,-2.8,5157,03,Esperanto
107,52.19652,21.0521767,13:33:20,8,1045,13:29:00,4.333333333333333,3060,01,al.Witosa
228,52.199645,20.9522883,13:33:18,3,1050,13:31:00,2.3,4847,02,Rakowska
228,52.200453,20.948818,13:33:08,1,1055,13:35:00,-1.8666666666666667,4106,01,Instalatorów
107,52.244041,20.986807,13:33:23,3,1063,13:22:00,11.383333333333333,5154,04,Nowolipie
107,52.195461,21.048109,13:33:19,6,1066,13:33:00,0.31666666666666665,3325,04,Beethovena
200,52.181015,21.021059,13:33:22,2,1075,13:33:00,0.36666666666666664,3009,04,Metro Wilanowska
107,52.23597,21.007971,13:33:17,1,1076,13:31:00,2.283333333333333,7014,01,Metro Świętokrzyska
173,52.2144178,21.2175496,13:33:17,2,1118,13:35:00,-1.7166666666666666,2440,02,Stara Miłosna (Graniczna)
263,52.149902,21.053566,13:33:19,5,1201,13:33:00,0.31666666666666665,3144,01,Szolc-Rogozińskiego
166,52.13912,21.0686334,13:33:23,661,1203,13:33:00,0.38333333333333336,3201,04,Lokajskiego
263,52.1485016,21.0579762,13:33:22,1,1207,13:30:00,3.3666666666666667,3208,04,Płaskowickiej
139,52.1054,21.113745,13:33:22,62,1216,13:33:00,0.36666666666666664,3304,02,Borowa
218,52.183285,20.994955,13:33:23,1,1217,13:28:00,5.383333333333334,3412,02,Park Postępu
153,52.256863,21.177032,13:33:23,1,1412,13:34:00,-0.6166666666666667,2086,02,Rembertów-Kolonia
119,52.206139,21.175871,13:33:19,1,1413,13:27:00,6.316666666666666,2028,02,Pożaryskiego
702,52.1195297,21.2071017,13:33:21,2,1416,13:33:00,0.35,2228,01,Wyszyńskiego
183,52.24147,21.134718,13:33:23,2,1419,13:34:00,-0.6166666666666667,2059,01,Okularowa
173,52.250278,21.067141,13:33:22,7,1422,13:16:00,17.366666666666667,2117,01,Mińska
338,52.2627585,21.0609971,13:33:21,04,1500,13:32:00,1.35,1217,04,Księcia Ziemowita
338,52.260838,21.0303863,13:33:19,05,1501,13:34:00,-0.6833333333333333,1005,08,pl.Hallera
122,52.2321946,20.915046,13:32:57,6,1513,13:27:00,5.95,5059,02,pl.Kasztelański
119,52.196243,21.05103,13:33:04,2,1521,13:29:00,4.066666666666666,3325,02,Beethovena
168,52.201073,21.000468,13:33:07,6,1523,13:25:00,8.116666666666667,3237,01,Kulskiego
218,52.1797767,21.0242683,13:33:18,2,1533,13:34:00,-0.7,3009,16,Metro Wilanowska
106,52.2478417,20.9651233,13:33:10,1,1534,13:19:00,14.166666666666666,5124,02,Ostroroga
218,52.188626,20.992725,13:33:19,4,1535,13:35:00,-1.6833333333333333,3259,03,Maklakiewicza
221,52.2617067,20.9785,13:33:10,1,1536,13:33:00,0.16666666666666666,6039,12,pl.Grunwaldzki
181,52.283878,20.967018,13:33:09,4,1541,13:31:00,2.15,6085,03,Lektykarska
197,52.2714833,20.9507267,13:33:10,6,1543,13:29:00,4.166666666666667,6087,02,Magiera
169,52.2514183,21.0386083,13:33:19,3,1544,13:33:00,0.31666666666666665,1002,02,Ząbkowska
170,52.2709833,21.0937867,13:33:20,06,1550,13:35:00,-1.6666666666666667,1051,01,Elsnerów
197,52.238466,20.942881,13:33:08,3,1551,13:30:00,3.1333333333333333,5030,03,Metro Księcia Janusza
123,52.2260317,21.0837117,13:33:17,6,1554,13:29:00,4.283333333333333,2145,02,Abrahama
169,52.292195,21.047485,13:33:14,2,1555,13:31:00,2.2333333333333334,1146,01,Metro Kondratowicza
156,52.2530666,21.0521768,13:33:23,1,1800,13:30:00,3.3833333333333333,1028,06,Dw.Wschodni (Kijowska)
169,52.2660756,21.038023,13:33:19,5,1805,13:33:00,0.31666666666666665,1076,01,11 Listopada
169,52.3001711,21.0418888,13:33:19,1,1814,13:35:00,-1.6833333333333333,1152,06,Bródno-Podgrodzie
115,52.217288,21.164473,13:33:07,1,1835,13:35:00,-1.8833333333333333,2025,02,Alpejska-Instytut
181,52.3113521,20.9155803,13:33:22,1,1839,13:33:00,0.36666666666666664,6073,01,Żubrowa-UKSW
115,52.169886,21.2421093,13:33:18,2,1840,13:36:00,-2.7,2222,01,Aleksandrów
166,52.223643,21.024287,13:33:17,7,1844,13:30:00,3.283333333333333,7038,02,Piękna
338,52.2553476,21.0345555,13:33:22,01,1846,13:31:00,2.3666666666666667,1003,02,Dw.Wileński
173,52.2378186,21.1192415,13:33:18,9,1849,13:33:00,0.3,2014,01,Gocławek
173,52.2381065,21.2572178,13:33:20,1,1851,13:33:00,0.3333333333333333,2852,01,Mariańska
303,52.269331,20.9864301,13:33:15,2,1856,13:36:00,-2.75,6003,18,pl.Wilsona
183,52.2387384,21.1917353,13:33:22,3,1857,13:33:00,0.36666666666666664,2379,01,Zielona
222,52.189599,21.007596,13:33:07,5,1906,13:33:00,0.11666666666666667,3116,06,Samochodowa
222,52.193051,21.0136542,13:33:23,6,1909,13:22:00,11.383333333333333,3232,04,Polskie Radio
222,52.2447074,21.0050357,13:33:23,2,1910,13:35:00,-1.6166666666666667,7101,01,Bielańska
222,52.216045,21.020262,13:33:17,4,1911,13:29:00,4.283333333333333,7008,02,Litewska
724,52.128986,21.068075,13:33:20,667,2002,13:35:00,-1.6666666666666667,3400,06,os.Kabaty
189,52.196503,20.924877,13:33:22,14,2005,13:28:00,5.366666666666666,4090,01,Zajezdnia Kleszczowa
189,52.2388899,20.9008391,13:33:21,1,2008,13:35:00,-1.65,5050,71,os.Górczewska
217,52.1455894,21.0516765,13:33:24,1,2012,13:36:00,-2.6,3142,04,Natolin Płn.
162,52.190983,21.074066,13:33:21,7,2022,13:33:00,0.35,3091,02,Sypniewska
189,52.179386,21.052166,13:33:23,8,2030,13:30:00,3.3833333333333333,3093,02,Batumi
189,52.173382,21.026251,13:33:23,12,2031,13:30:00,3.3833333333333333,3279,01,Metro Służew
727,52.13179,21.01779,13:33:21,04,2044,13:33:00,0.35,3017,01,Bogatki
191,52.201679,20.937107,13:33:22,3,2201,13:31:00,2.3666666666666667,4048,01,Popularna
517,52.1957189,20.8978151,13:33:15,2,2205,13:29:00,4.25,4095,02,Szancera
719,52.256569,20.770288,13:33:23,4,2223,13:32:00,1.3833333333333333,6109,01,Wojcieszyn
177,52.239418,20.897707,13:33:24,2,2224,13:28:00,5.4,5050,03,os.Górczewska
105,52.2288044,20.9678807,13:33:23,1,2242,13:30:00,3.3833333333333333,5042,02,Szpital Wolski
523,52.258469,20.898373,13:33:19,5,2243,13:35:00,-1.6833333333333333,5055,07,Stare Bemowo
172,52.212612,20.953569,13:33:20,7,2251,13:32:00,1.3333333333333333,4051,01,Berestecka
401,52.1799897,21.023911,13:33:23,3,2255,13:35:00,-1.6166666666666667,3009,17,Metro Wilanowska
172,52.1962187,21.0152872,13:33:23,5,2259,13:31:00,2.3833333333333333,3231,03,Odyńca
L22,52.1542446,21.3124526,13:33:23,2,25184,13:33:00,0.38333333333333336,2872,01,Os.Radiówek
L51,52.1037358,21.2650511,13:33:20,1,25188,13:31:00,2.3333333333333335,2239,02,Hoża
112,52.3044216,21.082376,13:33:20,7,3402,13:34:00,-0.6666666666666666,1234,04,CH Marki
509,52.2375241,21.0566668,13:33:21,8,3403,13:29:00,4.35,2138,01,Adampolska
500,52.3001866,21.0417951,13:33:20,2,3405,13:35:00,-1.6666666666666667,1152,04,Bródno-Podgrodzie
723,52.2996095,20.9934118,13:33:22,474,3408,13:33:00,0.36666666666666664,1015,02,Kanał Żerański
705,52.3690166,21.0287055,13:33:21,64,3421,13:33:00,0.35,1265,01,Gazownia
180,52.2691673,20.9432368,13:33:16,14,3431,13:33:00,0.26666666666666666,6132,01,Galla Anonima
145,52.2388071,21.1322265,13:33:23,8,3432,13:32:00,1.3833333333333333,2058,02,PKP Gocławek
140,52.2766175,21.0527523,13:33:21,2,3435,13:35:00,-1.65,1140,09,Metro Trocka
120,52.2693701,21.059647,13:33:22,2,3436,13:33:00,0.36666666666666664,1055,04,Gorzykowska
500,52.2531898,20.9820191,13:33:19,6,3439,13:36:00,-2.683333333333333,7091,04,"rondo ""Radosława"""
731,52.344238,20.9512915,13:33:17,477,3444,13:33:00,0.2833333333333333,1025,02,Poetów
511,52.3431633,20.9517583,13:33:23,3,3452,13:34:00,-0.6166666666666667,1025,01,Poetów
245,52.280528,21.13116,13:33:13,1,3459,13:18:00,15.216666666666667,1474,04,Maczka
509,52.2252373,21.0917913,13:33:23,5,3463,13:34:00,-0.6166666666666667,2146,02,Bora-Komorowskiego
162,52.2058015,21.0486775,13:33:23,1,3464,13:28:00,5.383333333333334,3058,01,Sielce
705,52.4792536,21.095519,13:33:23,63,3465,13:34:00,-0.6166666666666667,1440,02,Wolica
723,52.377203,20.9189361,13:33:20,476,3466,13:33:00,0.3333333333333333,1188,01,Pałac
509,52.2328016,21.0604893,13:33:22,4,3467,13:34:00,-0.6333333333333333,2140,04,Stacja Krwiodawstwa
L-2,52.065266,21.0190395,13:33:24,683,35132,13:33:00,0.4,3169,01,PKP Piaseczno
L-2,52.065827,21.0203503,13:33:21,684,35133,13:34:00,-0.65,3169,02,PKP Piaseczno
129,52.1972179,20.8935741,13:33:22,2,4200,13:27:00,6.366666666666666,4086,02,Nowotyska
178,52.233719,21.000727,13:33:22,4,4206,13:29:00,4.366666666666666,7088,05,rondo ONZ
122,52.267269,20.94661,13:33:20,4,4209,13:20:00,13.333333333333334,6131,01,Kochanowskiego
207,52.18742,20.896954,13:33:10,4,4210,13:33:00,0.16666666666666666,4336,02,Hassa
249,52.246674,20.940281,13:33:23,676,4211,13:35:00,-1.6166666666666667,5073,05,Koło
207,52.2003212,20.8929219,13:33:13,1,4217,13:33:00,0.21666666666666667,4216,03,Ursus-Ratusz
197,52.281132,20.959076,13:33:20,5,4218,13:34:00,-0.6666666666666666,6007,05,Podleśna-IMGW
122,52.25766,20.919182,13:33:22,679,4220,13:26:00,7.366666666666666,5064,03,Wrocławska
207,52.190605,20.883566,13:33:23,3,4223,13:19:00,14.383333333333333,4099,04,Spisaka
154,52.2170372,20.9637757,13:33:24,3,4224,13:34:00,-0.6,4045,71,rondo Zesłańców Syberyjskich
178,52.23143,20.990316,13:33:15,2,4230,13:33:00,0.25,5039,02,Norblin
197,52.258823,20.935478,13:33:22,4,4238,13:33:00,0.36666666666666664,5165,02,Fort Bema
129,52.235783,20.938578,13:33:21,3,4239,13:30:00,3.35,5100,01,Redutowa
714,52.273792,20.807425,13:33:23,1,4246,13:15:00,18.383333333333333,6108,02,Lipków
122,52.274582,20.981525,13:33:21,2,4248,13:32:00,1.35,6077,01,Marymont-Potok
146,52.1867515,21.1288497,13:33:23,1,4307,13:31:00,2.3833333333333333,2211,01,Peonii
147,52.2082746,21.1094739,13:33:23,1,4316,13:31:00,2.3833333333333333,2207,02,Wojsławicka
153,52.2854497,21.1726249,13:33:23,2,4322,13:36:00,-2.6166666666666667,2420,01,Pastuszków
197,52.2250745,20.9308077,13:33:23,1,4333,13:34:00,-0.6166666666666667,5011,08,Cm.Wolski
154,52.1950549,20.9652616,13:33:23,2,4336,13:27:00,6.383333333333334,4009,03,1 Sierpnia
173,52.252094,21.065186,13:33:22,8,4402,13:32:00,1.3666666666666667,2118,01,Chodakowska
118,52.21909,21.015623,13:33:21,1,4405,13:17:00,16.35,7006,09,Metro Politechnika
240,52.320923,21.066553,13:33:23,1,4416,13:33:00,0.38333333333333336,1525,02,Grodzisk-Kościół
156,52.291122,21.05081,13:33:22,5,4418,13:35:00,-1.6333333333333333,1146,08,Metro Kondratowicza
134,52.307102,21.061867,13:33:21,1,4419,13:32:00,1.35,1205,01,Głębocka
122,52.256653,20.920818,13:33:24,10,4424,13:28:00,5.4,5064,04,Wrocławska
170,52.25835,21.034727,13:33:23,4,4427,13:33:00,0.38333333333333336,1066,01,Inżynierska
197,52.23999,20.945936,13:33:24,7,4428,13:30:00,3.4,5030,06,Metro Księcia Janusza
123,52.23811,21.099577,13:33:19,3,4429,13:24:00,9.316666666666666,2107,02,Łukowska
123,52.25248,21.050829,13:33:22,5,4430,13:32:00,1.3666666666666667,1028,05,Dw.Wschodni (Kijowska)
177,52.202493,20.895769,13:33:09,6,5228,13:31:00,2.15,4216,07,Ursus-Ratusz
172,52.20047,20.978549,13:33:22,6,5230,13:34:00,-0.6333333333333333,4112,02,Mołdawska
171,52.227044,21.0337141,13:33:21,6,5251,13:31:00,2.35,7070,01,Śniegockiej
187,52.2181145,20.9659048,13:33:13,6,5252,13:34:00,-0.7833333333333333,4044,02,Dw.Zachodni
317,52.167963,21.084391,13:33:13,2,5254,13:34:00,-0.7833333333333333,3044,06,Wilanów
187,52.2171776,20.9781061,13:33:20,12,5259,13:34:00,-0.6666666666666666,4116,01,Hala Kopińska
500,52.278213,21.044106,13:33:23,1,5403,13:34:00,-0.6166666666666667,1144,01,Cm.Bródnowski
512,52.2529512,21.0521726,13:33:23,4,5407,13:35:00,-1.6166666666666667,1028,03,Dw.Wschodni (Kijowska)
132,52.316216,21.059746,13:33:19,2,5413,13:33:00,0.31666666666666665,1359,04,os.Derby
132,52.2719881,20.9686937,13:33:21,5,5414,13:28:00,5.35,6005,11,Metro Marymont
Z26,52.233555,20.96567,13:33:21,2,5425,13:33:00,0.35,5005,02,Metro Płocka
132,52.290369,21.0034347,13:33:23,4,5434,13:34:00,-0.6166666666666667,1013,04,Żerań FSO
245,52.286327,21.092924,13:33:20,4,5435,13:32:00,1.3333333333333333,1065,01,Klamrowa
190,52.305077,21.085386,13:33:22,12,5441,13:35:00,-1.6333333333333333,1234,01,CH Marki
735,52.356304,21.028687,13:33:22,62,5444,13:34:00,-0.6333333333333333,1133,02,Kobiałka
527,52.292183,21.048964,13:33:21,513,5445,13:30:00,3.35,1146,03,Metro Kondratowicza
112,52.2789619,20.9777622,13:33:23,6,5449,13:33:00,0.38333333333333336,6133,03,os.Potok
190,52.227821,20.901075,13:33:23,2,5458,13:32:00,1.3833333333333333,5109,01,Rozłogi
127,52.230246,21.01331,13:33:13,9,5881,13:29:00,4.216666666666667,7013,15,Centrum
128,52.2251392,20.9909007,13:33:23,407,5888,13:27:00,6.383333333333334,4001,03,pl.Zawiszy
128,52.201805,20.979826,13:33:21,334,5896,13:32:00,1.35,4112,01,Mołdawska
519,52.222809,21.016344,13:33:21,5,5897,13:33:00,0.35,7011,02,pl.Konstytucji
116,52.233154,21.019375,13:32:59,3,5901,13:24:00,8.983333333333333,7042,02,Foksal
116,52.269138,20.9846,13:33:19,12,5910,13:26:00,7.316666666666666,6003,01,pl.Wilsona
111,52.231124,21.065568,13:33:04,10,5917,13:31:00,2.066666666666667,2142,02,Brazylijska
175,52.190334,20.980869,13:33:23,403,5925,13:28:00,5.383333333333334,4035,01,Novotel
175,52.1807,20.9782,13:33:21,401,5928,13:33:00,0.35,4038,02,Komitetu Obrony Robotników
180,52.258728,20.962093,13:33:19,13,5934,13:28:00,5.316666666666666,6091,01,Elbląska
116,52.280041,20.923082,13:33:22,17,5945,13:28:00,5.366666666666666,6026,05,Bogusławskiego
180,52.223747,21.024158,13:33:22,5,5949,13:32:00,1.3666666666666667,7038,02,Piękna
116,52.265854,20.98918,13:33:23,431,5951,13:20:00,13.383333333333333,6002,02,pl.Inwalidów
116,52.279819,20.929056,13:33:14,14,5954,13:32:00,1.2333333333333334,6025,01,Cm.Wawrzyszewski
111,52.2271,21.0947,13:33:22,3,5956,13:33:00,0.36666666666666664,2149,03,Umińskiego
116,52.2206,21.0248,13:33:22,10,5957,13:29:00,4.366666666666666,7037,01,pl.Na Rozdrożu
180,52.2321432,21.0202874,13:33:22,11,5959,13:30:00,3.3666666666666667,7042,01,Foksal
127,52.243172,21.020517,13:33:20,7,5962,13:34:00,-0.6666666666666666,7100,02,Browarna
127,52.22002,20.971962,13:33:20,1,5963,13:32:00,1.3333333333333333,4043,01,Grzymały-Sokołowskiego
518,52.244572,21.014141,13:33:22,3,5964,13:33:00,0.36666666666666664,7046,02,pl.Zamkowy
111,52.232903,21.025724,13:33:20,9,5966,13:28:00,5.333333333333333,7068,02,PKP Powiśle
111,52.223492,21.101801,13:33:21,1,5968,13:32:00,1.35,2148,08,Gocław
180,52.259464,20.960674,13:33:22,2,5970,13:27:00,6.366666666666666,6091,02,Elbląska
518,52.268333,20.986349,13:33:20,5,5971,13:31:00,2.3333333333333335,6003,07,pl.Wilsona
180,52.244732,21.014082,13:33:22,4,5973,13:30:00,3.3666666666666667,7046,02,pl.Zamkowy
111,52.248814,20.994631,13:33:23,6,5980,13:34:00,-0.6166666666666667,7023,01,Nalewki-Muzeum
116,52.236458,21.018141,13:33:22,11,5991,13:32:00,1.3666666666666667,7049,01,Ordynacka
L29,52.2677314,20.4626168,13:33:24,1,60056,13:32:00,1.4,6817,01,Kampinos
105,52.238979,20.900581,13:33:22,5,6219,13:34:00,-0.6333333333333333,5050,71,os.Górczewska
713,52.214542,20.744465,13:33:22,2,6230,13:36:00,-2.6333333333333333,5138,01,AGRICOOP
728,52.150655,20.916944,13:33:04,1,6232,13:29:00,4.066666666666666,4158,01,Kościół
184,52.289879,20.931334,13:33:21,2,6234,13:32:00,1.35,6059,01,Metro Młociny
177,52.204735,20.881546,13:33:20,4,6242,13:33:00,0.3333333333333333,4355,02,Habicha
L14,52.0836281,21.1974823,13:33:23,1,70033,13:33:00,0.38333333333333336,3853,02,Gassy
L-3,52.0808721,20.9773358,13:33:22,02,70034,13:35:00,-1.6333333333333333,4275,02,Krótka
L-3,52.0676975,21.0166278,13:33:21,03,70036,13:36:00,-2.65,3169,07,PKP Piaseczno
177,52.227905,20.901573,13:33:23,3,7200,13:30:00,3.3833333333333333,5109,01,Rozłogi
112,52.293465,21.0288515,13:33:21,9,7207,13:26:00,7.35,1085,04,Metro Bródno
414,52.200542,20.947962,13:33:19,01,7212,13:32:00,1.3166666666666667,4106,02,Instalatorów
189,52.2210957,20.9169369,13:33:23,3,7213,13:25:00,8.383333333333333,5012,03,Ciepłownia Wola
184,52.291534,20.930748,13:33:22,3,7231,13:27:00,6.366666666666666,6059,03,Metro Młociny
136,52.247912,20.965282,13:33:23,015,7240,13:31:00,2.3833333333333333,5124,02,Ostroroga
401,52.198486,20.87114,13:33:20,6,7242,13:32:00,1.3333333333333333,4219,01,Śmigielska
523,52.247765,21.106627,13:33:23,13,7250,13:36:00,-2.6166666666666667,2108,01,PKP Olszynka Grochowska
717,52.2057967,20.9432266,13:33:23,66,7253,13:29:00,4.383333333333334,4047,01,PKP WKD Al.Jerozolimskie
189,52.199936,20.914392,13:33:23,4,7256,13:28:00,5.383333333333334,4092,02,Ryżowa
190,52.2388772,20.9475836,13:33:22,4,7258,13:23:00,10.366666666666667,5020,02,Park Moczydło
507,52.225937,21.08518,13:33:23,2,7302,13:32:00,1.3833333333333333,2145,01,Abrahama
402,52.238308,21.147547,13:33:22,3,7309,13:33:00,0.36666666666666664,2062,01,Potockich
125,52.213867,21.165829,13:33:21,1,7313,13:33:00,0.35,2026,02,IX Poprzeczna
125,52.2279889,21.1412092,13:33:20,06,7314,13:33:00,0.3333333333333333,2018,02,Trakt Lubelski
171,52.239052,20.943672,13:33:22,451,7316,13:31:00,2.3666666666666667,5030,01,Metro Księcia Janusza
523,52.217319,20.977911,13:33:23,2,7319,13:32:00,1.3833333333333333,4116,01,Hala Kopińska
102,52.250374,21.067369,13:33:21,546,7330,13:31:00,2.35,2117,02,Mińska
110,52.315823,20.88236,13:33:24,5,753,13:34:00,-0.6,6193,02,Trenów
750,52.364574,20.776403,13:33:14,1,756,13:36:00,-2.7666666666666666,6401,71,Palmiry
523,52.237216,20.9556259,13:33:23,3,7705,13:32:00,1.3833333333333333,5028,03,Metro Młynów
168,52.2363676,21.1126977,13:33:23,2,7707,13:36:00,-2.6166666666666667,2105,02,Witolin
713,52.2165772,20.8950077,13:33:23,3,7711,13:33:00,0.38333333333333336,5192,02,Lazurowa
517,52.2229329,21.0433219,13:33:20,5,7712,13:33:00,0.3333333333333333,7076,07,Torwar
189,52.2249315,20.9163132,13:33:23,15,7716,13:27:00,6.383333333333334,5057,01,Synów Pułku
517,52.2173629,20.9776812,13:33:23,8,7720,13:33:00,0.38333333333333336,4116,01,Hala Kopińska
189,52.1763524,21.0446526,13:33:23,11,7723,13:27:00,6.383333333333334,3039,02,Dolina Służewiecka
190,52.2380326,20.9780751,13:33:23,10,7728,13:32:00,1.3833333333333333,5024,01,Leszno
189,52.1735262,21.0310617,13:33:23,7,7729,13:30:00,3.3833333333333333,3096,02,Wróbla
521,52.2079259,20.9642639,13:33:23,3,7735,13:33:00,0.38333333333333336,4119,03,Szczęśliwice
199,52.269121,21.179716,13:33:04,1,7745,13:35:00,-1.9333333333333333,2451,01,Rembertów-Strzelnica
102,52.2503725,21.0692944,13:33:23,548,7746,13:31:00,2.3833333333333333,2413,03,Terespolska
509,52.3190884,20.9513477,13:33:23,15,7751,13:27:00,6.383333333333334,1277,02,Tarchomin
250,52.29097,20.928074,13:33:23,3,777,13:33:00,0.38333333333333336,6059,22,Metro Młociny
750,52.3805719,20.7829095,13:33:24,2,779,13:33:00,0.4,6650,02,Łomna Wschód
145,52.244757,21.0882661,13:33:23,9,7800,13:36:00,-2.6166666666666667,2008,16,Wiatraczna
145,52.2851003,21.1096801,13:33:23,7,7801,13:32:00,1.3833333333333333,1210,02,Szwoleżerów
145,52.2425385,21.1016913,13:33:23,11,7803,13:32:00,1.3833333333333333,2011,01,pl.Szembeka
182,52.2300014,21.0687276,13:33:23,7,7805,13:35:00,-1.6166666666666667,2098,02,Międzynarodowa
502,52.2166124,21.2296485,13:33:23,463,7824,13:28:00,5.383333333333334,2347,01,Marmurowa
145,52.2771206,21.1156825,13:33:23,1,7833,13:27:00,6.383333333333334,1209,01,Powstańców
502,52.2142011,21.217962,13:33:22,462,7834,13:33:00,0.36666666666666664,2440,05,Stara Miłosna (Graniczna)
525,52.232728,21.115231,13:33:08,2,7838,13:28:00,5.133333333333334,2104,02,Zajezdnia Ostrobramska
151,52.2191364,21.0154075,13:33:22,2,7842,13:33:00,0.36666666666666664,7006,07,Metro Politechnika
402,52.1741967,21.0136495,13:33:23,7,7845,13:34:00,-0.6166666666666667,3248,01,Bełdan
143,52.264296,21.169111,13:33:15,7,7846,13:32:00,1.25,2088,01,Rembertów-Akademia
704,52.2154713,21.3168478,13:33:23,1,7847,13:33:00,0.38333333333333336,2303,02,Hipolitowska
162,52.2337568,21.0305735,13:33:20,2,7852,13:32:00,1.3333333333333333,7068,03,PKP Powiśle
141,52.1886961,20.9802657,13:33:23,1,7865,13:27:00,6.383333333333334,4036,02,Leżajska
514,52.2344734,21.128183,13:33:23,4,7871,13:29:00,4.383333333333334,2015,04,Płowiecka
202,52.2437015,21.0395305,13:33:24,544,7872,13:32:00,1.4,1232,04,most Świętokrzyski
151,52.2310265,21.0965216,13:33:23,1,7877,13:31:00,2.3833333333333333,2418,02,Nowaka-Jeziorańskiego
525,52.2296698,21.0037571,13:33:19,4,7878,13:34:00,-0.6833333333333333,7002,21,Dw.Centralny
525,52.2083047,21.1966026,13:33:23,8,7879,13:35:00,-1.6166666666666667,2032,01,Międzylesie
523,52.2281888,20.9574366,13:33:20,9,7883,13:29:00,4.333333333333333,5043,06,PKP Wola (Kasprzaka)
L48,52.2338584,21.2791195,13:33:23,1,80101,13:32:00,1.3833333333333333,2855,02,Szklarniowa
L38,52.3250033,21.2854931,13:32:32,1,80111,13:31:00,1.5333333333333334,1744,02,Majdan
L35,52.3670153,21.3234305,13:33:20,1,80118,13:33:00,0.3333333333333333,1786,02,Stare Grabie II
L45,52.3296909,21.1094206,13:33:24,02,80120,13:33:00,0.4,1249,03,Słoneczna
L46,52.2981201,21.161601,13:33:19,682,80122,13:33:00,0.31666666666666665,1850,01,Os.Wituś
504,52.150248,21.037269,13:33:19,2,8301,13:32:00,1.3166666666666667,3301,02,Malinowskiego
317,52.180134,20.9479318,13:33:22,5,8307,13:31:00,2.3666666666666667,4014,02,Instytut Lotnictwa
504,52.2294878,21.0039505,13:33:27,8,8309,13:36:00,-2.55,7002,29,Dw.Centralny
127,52.2071061,20.9249425,13:33:25,2,8310,13:33:00,0.4166666666666667,4103,01,Płużańska
148,52.2246821,21.0934765,13:33:21,6,8312,13:34:00,-0.65,2146,01,Bora-Komorowskiego
148,52.1553463,21.0506705,13:33:14,1,8314,13:34:00,-0.7666666666666667,3122,04,Teligi
136,52.213559,20.9691601,13:33:21,10,8317,13:34:00,-0.65,4154,01,Szczęśliwicka
187,52.1952505,20.8744385,13:33:22,2,8320,13:33:00,0.36666666666666664,4205,01,Bełzy
136,52.2475468,20.965425,13:33:19,12,8321,13:23:00,10.316666666666666,5124,02,Ostroroga
317,52.176348,21.002636,13:33:06,4,8345,13:32:00,1.1,3244,02,Cybernetyki
519,52.188245,21.0487283,13:33:00,2,8364,13:32:00,1.0,3031,52,Mangalia
527,52.3241092,21.0568214,13:33:21,514,8458,13:30:00,3.35,1326,03,Skarbka z Gór
138,52.1715607,21.0049672,13:33:24,8,8460,13:28:00,5.4,3266,01,Jadźwingów
217,52.1639367,21.0699833,13:33:09,2,8504,13:33:00,0.15,3353,01,Oś Królewska
501,52.228903,21.002504,13:33:21,5,8505,13:33:00,0.35,7002,27,Dw.Centralny
187,52.215125,21.046025,13:33:08,11,8506,13:34:00,-0.8666666666666667,7073,01,Szwoleżerów
522,52.164366,21.069925,13:33:04,3,8512,13:29:00,4.066666666666666,3353,01,Oś Królewska
709,52.0766683,21.026345,13:33:10,429,8518,13:32:00,1.1666666666666667,3163,01,Szkolna
501,52.206964,21.029943,13:33:11,4,8520,13:32:00,1.1833333333333333,3026,55,Spacerowa
519,52.2008217,21.0360933,13:33:14,4,8524,13:25:00,8.233333333333333,3027,01,Dolna
709,52.123944,21.018233,13:33:17,9,8535,13:30:00,3.283333333333333,3019,02,Pelikanów
136,52.1758117,21.0027633,13:33:17,013,8538,13:33:00,0.2833333333333333,3244,02,Cybernetyki
742,52.0791317,21.1328967,13:33:08,1,8547,13:28:00,5.133333333333334,3356,01,Od Lasu
151,52.23514,21.0859391,13:33:19,3,8564,13:32:00,1.3166666666666667,2101,04,Poligonowa
514,52.248645,21.2438367,13:33:21,3,8568,13:35:00,-1.65,2285,03,Wola Grzybowska
525,52.235664,21.081523,13:33:16,319,8577,13:30:00,3.2666666666666666,2100,03,Przyczółek Grochowski
509,52.2490483,21.0446483,13:33:18,3,8585,13:32:00,1.3,1001,02,Kijowska
500,52.263505,21.0188617,13:33:22,7,8593,13:30:00,3.3666666666666667,1006,01,rondo Starzyńskiego
136,52.2318705,20.9566328,13:33:22,1,8800,13:29:00,4.366666666666666,5007,06,PKP Wola (Wolska)
504,52.209519,20.9872866,13:33:18,7,8801,13:30:00,3.3,4030,01,Banacha-Szpital
165,52.1728315,20.999515,13:33:16,4,8809,13:33:00,0.26666666666666666,3265,02,Obrzeżna
174,52.172281,21.011253,13:33:19,1,8810,13:30:00,3.316666666666667,3404,02,Tarniny
138,52.1704358,20.9953983,13:33:19,7,8823,13:36:00,-2.683333333333333,3267,71,Bokserska
148,52.2380611,21.0993919,13:33:19,8,8826,13:34:00,-0.6833333333333333,2107,02,Łukowska
704,52.2397056,21.1147938,13:33:22,2,8830,13:34:00,-0.6333333333333333,2013,01,Kwatery Głównej
502,52.224249,21.210141,13:33:22,1,8842,13:31:00,2.3666666666666667,2292,01,Objazdowa
523,52.2409935,21.0829323,13:33:23,16,8846,13:30:00,3.3833333333333333,2130,02,os.Majdańska
143,52.2398815,21.114282,13:33:19,6,8850,13:34:00,-0.6833333333333333,2013,01,Kwatery Głównej
240,52.3385128,21.117605,13:33:21,3,8856,13:32:00,1.35,1240,01,Pustelnik
162,52.25881,21.034025,13:33:22,3,8869,13:33:00,0.36666666666666664,1066,01,Inżynierska
138,52.262178,21.0614006,13:33:16,4,8870,13:33:00,0.26666666666666666,1217,02,Księcia Ziemowita
520,52.2284216,21.0622475,13:33:20,5,8874,13:28:00,5.333333333333333,2097,01,Saska
245,52.2866835,21.1070165,13:33:18,2,8876,13:31:00,2.3,1211,02,Warszawska
148,52.1722756,20.9732141,13:33:16,3,8880,13:29:00,4.266666666666667,4200,01,Lotnisko Chopina-Odloty
136,52.1886211,20.9928291,13:33:18,3,8881,13:32:00,1.3,3259,02,Maklakiewicza
174,52.231769,20.998898,13:33:15,5,8886,13:33:00,0.25,7088,01,rondo ONZ
504,52.2169545,20.9902026,13:33:18,9,8889,13:29:00,4.3,4029,02,Pomnik Lotnika
187,52.18278,21.0684443,13:33:27,8,8890,13:33:00,0.45,3065,02,Sadyba
141,52.2399275,21.081579,13:33:19,5,8893,13:14:00,19.316666666666666,2130,01,os.Majdańska
211,52.313168,20.957779,13:33:19,2,9073,13:32:00,1.3166666666666667,1251,03,Picassa
211,52.331921,20.951496,13:33:09,012,9077,13:34:00,-0.85,1316,01,Ćwiklińskiej
314,52.314915,21.029858,13:32:50,1,9082,13:15:00,17.833333333333332,1170,02,Danusi
161,52.180614,21.171919,13:33:24,2,9093,13:33:00,0.4,2172,02,Borowiecka
305,52.2395355,21.1541917,13:33:21,1,9201,13:32:00,1.35,2063,02,Sezam
201,52.2641145,20.9288138,13:33:24,2,9203,13:33:00,0.4,5062,01,Piastów Śląskich
239,52.156171,21.0346724,13:33:19,572,9204,13:34:00,-0.6833333333333333,3132,03,Metro Stokłosy
211,52.3483283,20.9254181,13:33:20,460,9208,13:35:00,-1.6666666666666667,1944,01,Kępa Tarchomińska
264,52.167429,21.084058,13:33:22,1,9210,13:17:00,16.366666666666667,3044,08,Wilanów
349,52.2280058,20.9008613,13:33:23,1,9215,13:31:00,2.3833333333333333,5109,02,Rozłogi
203,52.2910851,20.9284858,13:33:22,472,9219,13:35:00,-1.6333333333333333,6059,17,Metro Młociny
211,52.2937696,20.9996838,13:33:23,5,9232,13:34:00,-0.6166666666666667,1013,02,Żerań FSO
164,52.190616,21.083146,13:33:23,2,9242,13:33:00,0.38333333333333336,3080,01,Statkowskiego
164,52.1459735,21.1390758,13:33:19,3,9245,13:34:00,-0.6833333333333333,3159,02,Kępa Zawadowska
133,52.3226525,20.9444381,13:33:23,2,9253,13:34:00,-0.6166666666666667,1195,04,Mehoffera
179,52.162071,21.036949,13:33:18,7,9312,13:35:00,-1.7,3120,05,Ursynów Płn.
179,52.143749,21.025024,13:33:21,10,9317,13:33:00,0.35,3292,03,CH Ursynów
135,52.259491,21.027285,13:33:18,6,9323,13:35:00,-1.7,1005,11,pl.Hallera
142,52.234875,21.125986,13:33:21,1,9329,13:34:00,-0.65,2015,01,Płowiecka
196,52.256859,21.177273,13:33:21,1,9340,13:19:00,14.35,2086,02,Rembertów-Kolonia
179,52.131367,21.056009,13:33:19,51,9341,13:15:00,18.316666666666666,3284,02,Rybałtów
135,52.246338,21.068838,13:33:23,2,9343,13:28:00,5.383333333333334,2005,01,Praga-Płd.-Ratusz
198,52.216167,21.238737,13:33:16,1,9350,13:34:00,-0.7333333333333333,2348,01,Pogodna
256,52.322498,21.078665,13:33:21,03,9351,13:34:00,-0.65,1202,01,Oknicka
739,52.080399,21.039684,13:33:21,3,9354,13:33:00,0.35,3795,01,Julianowska-Cmentarz
179,52.154716,21.050898,13:33:24,4,9356,13:32:00,1.4,3122,03,Teligi
326,52.302704,20.989813,13:33:14,3,9403,13:34:00,-0.7666666666666667,1016,01,Konwaliowa
152,52.326851,21.039761,13:33:16,5,9412,13:33:00,0.26666666666666666,1560,01,Warzelnicza-Szkoła
103,52.223309,20.970123,13:33:22,3,9413,13:33:00,0.36666666666666664,5120,53,Kolejowa
103,52.269264,20.942675,13:33:16,5,9415,13:31:00,2.2666666666666666,6132,01,Galla Anonima
152,52.33519,20.975529,13:32:54,4,9416,13:30:00,2.9,1103,01,Fletniowa
103,52.289639,20.934624,13:33:23,6,9418,13:34:00,-0.6166666666666667,6057,02,Sokratesa
103,52.254234,20.970594,13:33:21,2,9420,13:33:00,0.35,5122,02,Tatarska
103,52.281357,20.950924,13:33:22,1,9427,13:33:00,0.36666666666666664,6052,04,Metro Stare Bielany
157,52.28709,20.975958,13:33:15,10,9429,13:32:00,1.25,6082,04,Gwiaździsta
516,52.323868,20.960499,13:33:24,2,9430,13:30:00,3.4,1313,01,Ćmielowska
326,52.303925,20.989027,13:33:23,2,9431,13:33:00,0.38333333333333336,1016,02,Konwaliowa
152,52.33411,20.970549,13:33:03,2,9433,13:31:00,2.05,1486,02,Krokwi
516,52.334465,20.94202,13:33:21,3,9437,13:33:00,0.35,1253,07,Nowodwory
157,52.239178,20.98752,13:33:13,8,9441,13:32:00,1.2166666666666666,5002,05,Wola-Ratusz
743,52.231052,20.772886,13:32:29,2,9442,13:27:00,5.483333333333333,5176,02,Willowa Aleja
157,52.261971,20.992697,13:33:17,9,9457,13:32:00,1.2833333333333334,6001,01,gen.Zajączka
226,52.296413,21.03298,13:33:20,3,9459,13:32:00,1.3333333333333333,1150,02,Suwalska
149,52.251136,20.870146333,13:33:23,662,9503,13:32:00,1.3833333333333333,5135,02,Iskry
159,52.219934833,20.971952167,13:33:24,1,9508,13:34:00,-0.6,4043,01,Grzymały-Sokołowskiego
159,52.2078715,21.060027,13:33:21,8,9510,13:31:00,2.35,3428,01,"Grupy Ak ""Północ"""
194,52.219320167,20.916023333,13:33:24,1,9513,13:34:00,-0.6,5012,06,Ciepłownia Wola
159,52.193237667,21.085217667,13:33:21,6,9519,13:35:00,-1.65,3079,04,EC Siekierki
737,52.123643,21.018401333,13:33:22,52,9523,13:34:00,-0.6333333333333333,3019,02,Pelikanów
220,52.177508167,20.914985667,13:33:23,07,9526,13:34:00,-0.6166666666666667,4327,71,Rebusowa
194,52.2069485,20.865084167,13:33:24,2,9532,13:31:00,2.4,4340,01,Konotopska
715,52.146806333,20.945785667,13:33:22,53,9536,13:32:00,1.3666666666666667,4168,01,Promyka
194,52.196278,20.881956333,13:33:24,65,9542,13:32:00,1.4,4217,12,PKP Ursus
707,52.170811667,20.937741833,13:33:20,02,9549,13:32:00,1.3333333333333333,4016,02,Szyszkowa
707,52.079803333,21.0215555,13:33:21,1,9553,13:33:00,0.35,3165,02,Kusocińskiego
159,52.222722,21.014452167,13:33:23,7,9555,13:31:00,2.3833333333333333,7011,03,pl.Konstytucji
212,52.261387,21.029646,13:33:22,1,9693,13:29:00,4.366666666666666,1005,07,pl.Hallera
131,52.22643,21.01403,13:33:24,5,9809,13:33:00,0.4,7012,02,Hoża
131,52.20174,21.04982,13:33:22,12,9811,13:29:00,4.366666666666666,3059,01,Chełmska
185,52.284775,20.970894,13:33:21,8,9816,13:32:00,1.35,6086,03,Klaudyny
185,52.279847,20.97359,13:33:23,432,9831,13:34:00,-0.6166666666666667,6137,02,Rudzka
167,52.23967,20.937172,13:33:23,9,9833,13:32:00,1.3833333333333333,5031,01,Góralska
185,52.25509,21.01137,13:33:21,7,9835,13:32:00,1.35,7056,01,Sanguszki
185,52.23421,21.03873,13:33:18,11,9839,13:30:00,3.3,7003,06,most Poniatowskiego
185,52.180573,21.054078,13:33:22,12,9845,13:26:00,7.366666666666666,3093,01,Batumi
114,52.270561,20.992201,13:32:32,4,9903,13:27:00,5.533333333333333,6099,01,Czarnieckiego
193,52.17123,21.007902,13:33:19,4,9912,13:20:00,13.316666666666666,3246,01,Orzycka
114,52.300232,21.041862,13:33:18,2,9925,13:36:00,-2.7,1152,05,Bródno-Podgrodzie
114,52.265137,20.969391,13:32:48,9,9934,13:33:00,-0.2,6040,02,Sady Żoliborskie
114,52.286903,21.021612,13:33:18,1,9938,13:30:00,3.3,1157,02,Bartnicza
193,52.153828,21.039194,13:33:21,1,9940,13:32:00,1.35,3136,01,Ursynów Płd.
186,52.315514,20.975697,13:33:21,11,9944,13:34:00,-0.65,1019,01,Obrazkowa
213,52.1652148,21.2207668,13:34:20,1,1003,13:35:00,-0.6666666666666666,2049,02,Czekanowska
225,52.2593723,21.1617843,13:34:21,04,1007,13:29:00,5.35,2083,02,Rembertów-Ratusz
L24,52.0678246,21.0281795,13:34:21,696,10074,13:34:00,0.35,3205,01,Dom Kultury
219,52.19078,21.15054,13:34:18,2,1008,13:35:00,-0.7,2402,01,Zabłudowska
311,52.2217558,21.0922925,13:34:22,502,1010,13:34:00,0.36666666666666664,2313,04,Meissnera
108,52.22839,21.023306,13:34:22,4,1020,13:37:00,-2.6333333333333333,7040,06,pl.Trzech Krzyży
192,52.143841,21.048406,13:34:08,1,1022,13:33:00,1.1333333333333333,3141,02,Braci Wagów
263,52.164589,21.109032,13:34:21,06,1026,13:36:00,-1.65,3150,02,Syta
107,52.215199,21.045921,13:34:21,9,1030,13:32:00,2.35,7073,01,Szwoleżerów
107,52.2445167,20.9793667,13:34:17,2,1043,13:36:00,-1.7166666666666666,5157,03,Esperanto
228,52.199145,20.954438,13:34:08,1,1055,13:36:00,-1.8666666666666667,4847,01,Rakowska
208,52.2102583,20.9755833,13:34:18,591,1059,13:15:00,19.3,4005,10,Bitwy Warszawskiej 1920 r.
200,52.1648827,21.0842059,13:34:22,1,1064,13:24:00,10.366666666666667,3044,01,Wilanów
108,52.184505,21.080675,13:34:23,399,1069,13:34:00,0.38333333333333336,3082,01,Zawodzie
156,52.2904936,21.0037706,13:34:11,3,1110,13:32:00,2.183333333333333,1013,04,Żerań FSO
173,52.2143041,21.2175301,13:34:17,2,1118,13:35:00,-0.7166666666666667,2440,02,Stara Miłosna (Graniczna)
106,52.234032,20.987167,13:34:21,6,1202,13:34:00,0.35,5193,01,Wronia
166,52.1378861,21.0650485,13:34:22,661,1203,13:33:00,1.3666666666666667,3426,02,Przy Bażantarni
118,52.235051,21.0332569,13:34:23,4,1208,13:30:00,4.383333333333334,7064,02,Al. 3 Maja
106,52.247433,20.965462,13:34:20,7,1223,13:34:00,0.3333333333333333,5124,01,Ostroroga
126,52.318872,20.9661831,13:34:16,1,1400,13:35:00,-0.7333333333333333,1219,02,Milenijna
153,52.256874,21.177034,13:34:21,1,1412,13:34:00,0.35,2086,02,Rembertów-Kolonia
119,52.206871,21.182949,13:34:22,1,1413,13:28:00,6.366666666666666,2029,02,Bursztynowa-Szpital
173,52.250237,21.070801,13:34:20,7,1422,13:35:00,-0.6666666666666666,2413,04,Terespolska
736,52.3275845,21.0290136,13:34:18,2,1506,13:32:00,2.3,1129,01,Bruszewska
168,52.198124,21.001229,13:34:07,6,1523,13:26:00,8.116666666666667,3238,01,Wołoska-Szpital
117,52.2220767,21.1002633,13:34:07,5,1528,13:32:00,2.1166666666666667,2148,07,Gocław
183,52.2459417,21.189375,13:34:22,4,1529,13:33:00,1.3666666666666667,2277,03,Brata Alberta
166,52.249025,21.04482,13:34:19,6,1532,13:24:00,10.316666666666666,1001,02,Kijowska
218,52.1797767,21.0242683,13:34:19,2,1533,13:34:00,0.31666666666666665,3009,16,Metro Wilanowska
106,52.2478417,20.9651233,13:34:14,1,1534,13:19:00,15.233333333333333,5124,02,Ostroroga
221,52.2627383,20.9805483,13:34:14,1,1536,13:15:00,19.233333333333334,6039,09,pl.Grunwaldzki
166,52.15912,21.050965,13:34:13,343,1546,13:31:00,3.216666666666667,3151,01,Ciszewskiego
170,52.2709833,21.0937867,13:34:08,06,1550,13:35:00,-0.8666666666666667,1051,01,Elsnerów
156,52.2530683,21.0521775,13:34:17,1,1800,13:30:00,4.283333333333333,1028,06,Dw.Wschodni (Kijowska)
303,52.2778136,20.9403936,13:34:20,3,1810,13:35:00,-0.6666666666666666,6023,01,Andersena
338,52.2639355,21.077201,13:34:18,02,1812,13:35:00,-0.7,1300,01,Nieświeska
169,52.3001683,21.0418893,13:34:19,1,1814,13:35:00,-0.6833333333333333,1152,06,Bródno-Podgrodzie
122,52.2764261,20.9835601,13:34:18,3,1833,13:22:00,12.3,6078,02,Drohicka
181,52.3089716,20.9199995,13:34:20,1,1839,13:34:00,0.3333333333333333,6074,01,Anny Jagiellonki
115,52.1698931,21.2421318,13:34:22,2,1840,13:36:00,-1.6333333333333333,2222,01,Aleksandrów
166,52.2284933,21.0229415,13:34:20,7,1844,13:32:00,2.3333333333333335,7040,02,pl.Trzech Krzyży
303,52.2694046,20.9862788,13:34:15,2,1856,13:36:00,-1.75,6003,18,pl.Wilsona
222,52.2123,21.0191,13:34:21,1,1901,13:33:00,1.35,3001,01,pl.Unii Lubelskiej
222,52.192323,21.010516,13:34:08,5,1906,13:35:00,-0.8666666666666667,3233,01,Joliot-Curie
251,52.0947146,21.1172986,13:34:23,066,1908,13:34:00,0.38333333333333336,3193,01,Polna
222,52.2446997,21.0050291,13:34:23,2,1910,13:35:00,-0.6166666666666667,7101,01,Bielańska
222,52.218491,21.018782,13:34:21,4,1911,13:30:00,4.35,7010,02,pl.Zbawiciela
139,52.165218,21.084152,13:34:17,65,1914,13:36:00,-1.7166666666666666,3044,01,Wilanów
251,52.168407,21.074722,13:34:22,63,1917,13:28:00,6.366666666666666,3043,02,Królowej Marysieńki
724,52.129002,21.068081,13:34:22,667,2002,13:35:00,-0.6333333333333333,3400,06,os.Kabaty
402,52.182178,21.045082,13:34:22,1,2004,13:25:00,9.366666666666667,3095,01,Warneńska
189,52.195499,20.92981,13:34:22,14,2005,13:30:00,4.366666666666666,4049,03,Łopuszańska
189,52.2390779,20.9010644,13:34:22,1,2008,13:35:00,-0.6333333333333333,5050,71,os.Górczewska
189,52.196232,20.927122,13:34:21,5,2010,13:34:00,0.35,4049,04,Łopuszańska
217,52.1459359,21.0513436,13:34:23,1,2012,13:36:00,-1.6166666666666667,3142,04,Natolin Płn.
710,52.095665,21.122295,13:34:20,1,2017,13:31:00,3.3333333333333335,3285,02,Południowa
162,52.192013,21.066954,13:34:22,7,2022,13:34:00,0.36666666666666664,3090,02,Jeziorko Czerniakowskie
522,52.22229,21.01573,13:34:22,5,2027,13:34:00,0.36666666666666664,7011,01,pl.Konstytucji
727,52.126965,21.017897,13:34:23,04,2044,13:34:00,0.38333333333333336,3018,01,Łagiewnicka
517,52.228336,21.00359,13:34:22,4,2202,13:33:00,1.3666666666666667,7002,02,Dw.Centralny
171,52.272484,20.925137,13:34:22,452,2209,13:37:00,-2.6333333333333333,6048,06,Chomiczówka
105,52.235054,20.896473,13:34:22,4,2231,13:27:00,7.366666666666666,5049,01,Szobera
184,52.238945,20.947067,13:34:23,5,2235,13:32:00,2.3833333333333333,5020,02,Park Moczydło
105,52.230221,20.982578,13:34:22,2,2241,13:37:00,-2.6333333333333333,5040,02,rondo Daszyńskiego
105,52.2288077,20.9678254,13:34:23,1,2242,13:30:00,4.383333333333334,5042,02,Szpital Wolski
523,52.258526,20.898375,13:34:21,5,2243,13:35:00,-0.65,5055,07,Stare Bemowo
105,52.216679,20.896458,13:34:20,7,2244,13:35:00,-0.6666666666666666,5192,04,Lazurowa
401,52.1938587,20.9029441,13:34:23,1,2254,13:34:00,0.38333333333333336,4125,02,Skoroszewska
401,52.1799897,21.0239186,13:34:23,3,2255,13:35:00,-0.6166666666666667,3009,17,Metro Wilanowska
136,52.237319,20.9640186,13:34:22,11,2258,13:33:00,1.3666666666666667,5026,02,Płocka-Szpital
L22,52.1539826,21.3119611,13:34:20,2,25184,13:33:00,1.3333333333333333,2872,01,Os.Radiówek
112,52.3076178,21.0796576,13:34:22,2,3400,13:28:00,6.366666666666666,1472,01,Geodezyjna
731,52.4062073,20.9520041,13:34:23,480,3404,13:31:00,3.3833333333333333,1372,01,os.Piaski
500,52.300258,21.0417676,13:34:20,2,3405,13:35:00,-0.6666666666666666,1152,04,Bródno-Podgrodzie
132,52.2969921,21.0230671,13:34:22,1,3412,13:34:00,0.36666666666666664,1086,05,Toruńska
Z26,52.2233016,20.930375,13:34:22,3,3414,13:34:00,0.36666666666666664,5021,01,Fort Wola
705,52.3648495,21.0281766,13:34:20,64,3421,13:34:00,0.3333333333333333,1135,01,Grabina
162,52.2161196,21.0442496,13:34:16,6,3424,13:30:00,4.266666666666667,7073,04,Szwoleżerów
199,52.2832313,21.1395793,13:34:22,2,3426,13:35:00,-0.6333333333333333,1864,01,Andersena
120,52.3617077,21.0615442,13:34:19,7,3430,13:37:00,-2.683333333333333,1295,01,Olesin
180,52.2674978,20.9469518,13:34:20,14,3431,13:34:00,0.3333333333333333,6131,01,Kochanowskiego
140,52.2766638,21.0527349,13:34:23,2,3435,13:35:00,-0.6166666666666667,1140,09,Metro Trocka
120,52.2698701,21.0565868,13:34:22,2,3436,13:34:00,0.36666666666666664,1136,01,Myszkowska
527,52.3235495,21.068257,13:34:22,515,3437,13:37:00,-2.6333333333333333,1182,06,Grodzisk
500,52.2532118,20.9821068,13:34:19,6,3439,13:36:00,-1.6833333333333333,7091,04,"rondo ""Radosława"""
160,52.237546,20.9963613,13:34:22,517,3442,13:34:00,0.36666666666666664,7086,02,Hala Mirowska
511,52.3416881,20.95345,13:34:20,3,3452,13:35:00,-0.6666666666666666,1947,11,Winnica
112,52.2468726,20.9114001,13:34:19,3,3455,13:27:00,7.316666666666666,5077,01,Dywizjonu 303
245,52.280515,21.131151,13:34:13,1,3459,13:18:00,16.216666666666665,1474,04,Maczka
L-2,52.0678611,21.0231401,13:34:22,684,35133,13:35:00,-0.6333333333333333,3168,02,Kolejka Piaseczyńska
L-5,52.0747671,21.0294995,13:34:21,2,35137,13:37:00,-2.65,3701,71,Zgoda
129,52.1966759,20.8895452,13:34:18,2,4200,13:27:00,7.3,4313,02,Plutonu Torpedy
122,52.2394351,20.8962487,13:34:23,7,4202,13:33:00,1.3833333333333333,5050,01,os.Górczewska
255,52.230141,20.982347,13:34:19,2,4208,13:28:00,6.316666666666666,5040,02,rondo Daszyńskiego
207,52.183929,20.896984,13:34:22,4,4210,13:35:00,-0.6333333333333333,4131,02,Starodęby
249,52.246674,20.940281,13:34:22,676,4211,13:35:00,-0.6333333333333333,5073,05,Koło
207,52.200373,20.892929,13:34:13,1,4217,13:33:00,1.2166666666666666,4216,03,Ursus-Ratusz
122,52.259621,20.917572,13:34:22,679,4220,13:26:00,8.366666666666667,5214,01,Zachodzącego Słońca
207,52.188065,20.884254,13:34:22,3,4223,13:34:00,0.36666666666666664,4099,03,Spisaka
154,52.2170666,20.9638574,13:34:23,3,4224,13:34:00,0.38333333333333336,4045,71,rondo Zesłańców Syberyjskich
255,52.223736,20.941975,13:34:20,3,4232,13:35:00,-0.6666666666666666,5204,01,Goleszowska
197,52.257256,20.931927,13:34:20,4,4238,13:34:00,0.3333333333333333,5150,02,Hala Sportowa Bemowo
129,52.234154,20.93379,13:34:20,3,4239,13:31:00,3.3333333333333335,5103,02,Antka Rozpylacza
122,52.272655,20.983078,13:34:21,2,4248,13:33:00,1.35,6076,01,Bohomolca
146,52.1706306,21.1559486,13:34:23,4,4303,13:34:00,0.38333333333333336,2459,02,Przewodowa
146,52.1842772,21.1320779,13:34:14,1,4307,13:32:00,2.2333333333333334,2212,01,Skalnicowa
117,52.2344554,21.0540411,13:34:23,2,4310,13:35:00,-0.6166666666666667,2153,01,Francuska
147,52.2124114,21.1045022,13:34:23,1,4316,13:32:00,2.3833333333333333,2206,02,Kadetów
702,52.1707426,21.1558811,13:34:20,1,4317,13:33:00,1.3333333333333333,2459,02,Przewodowa
153,52.2854371,21.1726192,13:34:23,2,4322,13:36:00,-1.6166666666666667,2420,01,Pastuszków
119,52.2042853,21.1656285,13:34:21,5,4323,13:33:00,1.35,2039,03,PKP Międzylesie
197,52.2253011,20.9309906,13:34:21,1,4333,13:34:00,0.35,5011,08,Cm.Wolski
154,52.1940684,20.9695984,13:34:23,2,4336,13:28:00,6.383333333333334,4303,01,Jadwisin
729,52.2397867,20.8952994,13:34:23,1,4339,13:34:00,0.38333333333333336,5050,04,os.Górczewska
118,52.219059,21.015499,13:34:19,1,4405,13:17:00,17.316666666666666,7006,09,Metro Politechnika
135,52.232738,21.083597,13:34:20,08,4406,13:33:00,1.3333333333333333,2415,02,Kompasowa
126,52.288074,21.029613,13:34:22,2,4409,13:32:00,2.3666666666666667,1083,01,Rembielińska
134,52.273533,20.966669,13:34:23,2,4413,13:35:00,-0.6166666666666667,6075,01,Park Kaskada
240,52.322754,21.068571,13:34:21,1,4416,13:34:00,0.35,1182,02,Grodzisk
123,52.248295,21.084158,13:34:17,1,4420,13:29:00,5.283333333333333,2113,01,Dwernickiego
122,52.253826,20.923935,13:34:23,10,4424,13:29:00,5.383333333333334,5107,02,Widawska
123,52.240997,21.101389,13:34:22,3,4429,13:25:00,9.366666666666667,2362,02,Gdecka
134,52.361725,21.061773,13:34:22,3,4432,13:37:00,-2.6333333333333333,1295,01,Olesin
719,52.260458,20.6877859,13:34:15,2,5204,13:33:00,1.25,6159,02,Wiosenna
713,52.216803,20.901298,13:34:20,1,5217,13:34:00,0.3333333333333333,5014,01,Drzeworytników
717,52.1929749,20.8288888,13:34:22,64,5218,13:37:00,-2.6333333333333333,4235,02,Ogińskiego
124,52.1589883,20.9416791,13:34:21,2,5221,13:35:00,-0.65,4021,02,Rybna
401,52.196527,20.924878,13:34:14,5,5225,13:31:00,3.2333333333333334,4090,01,Zajezdnia Kleszczowa
521,52.2427126,21.1013091,13:34:16,5,5234,13:30:00,4.266666666666667,2011,01,pl.Szembeka
523,52.2163581,20.9872302,13:34:22,10,5242,13:30:00,4.366666666666666,4029,04,Pomnik Lotnika
191,52.1949468,20.8995699,13:34:17,4,5243,13:36:00,-1.7166666666666666,4095,01,Szancera
716,52.198274,20.8705346,13:34:19,63,5244,13:34:00,0.31666666666666665,4219,01,Śmigielska
184,52.2149973,20.969619,13:34:03,6,5245,13:34:00,0.05,4154,04,Szczęśliwicka
136,52.200648,20.984366,13:34:18,9,5249,13:27:00,7.3,4032,01,Pruszkowska
136,52.1521105,21.0283415,13:34:15,4,5253,13:30:00,4.25,3133,03,Herbsta
317,52.167541,21.084446,13:34:13,2,5254,13:34:00,0.21666666666666667,3044,06,Wilanów
512,52.2529302,21.0521726,13:34:18,4,5407,13:35:00,-0.7,1028,03,Dw.Wschodni (Kijowska)
132,52.319523,21.057858,13:34:20,2,5413,13:34:00,0.3333333333333333,1358,02,os.Derby III
132,52.2719849,20.9686954,13:34:22,5,5414,13:28:00,6.366666666666666,6005,11,Metro Marymont
511,52.317207,20.975227,13:34:22,1,5415,13:33:00,1.3666666666666667,1019,02,Obrazkowa
132,52.293674,21.013765,13:34:22,4,5434,13:35:00,-0.6333333333333333,1159,04,PKP Toruńska
245,52.286522,21.087366,13:34:18,4,5435,13:32:00,2.3,1064,01,Lewinów
190,52.2389641,20.9462102,13:34:22,5,5438,13:33:00,1.3666666666666667,5020,02,Park Moczydło
190,52.305073,21.085394,13:34:23,12,5441,13:35:00,-0.6166666666666667,1234,01,CH Marki
145,52.286674,21.076853,13:34:19,2,5443,13:33:00,1.3166666666666667,1060,03,Młodzieńcza
509,52.270863,21.017046,13:34:22,2,5456,13:31:00,3.3666666666666667,1008,02,PIMot
128,52.226059,20.994686,13:34:20,407,5888,13:28:00,6.333333333333333,4052,01,pl.Starynkiewicza
503,52.150295,21.046547,13:34:22,3,5889,13:29:00,5.366666666666666,3280,01,Metro Imielin
116,52.235958,21.018041,13:34:19,3,5901,13:25:00,9.316666666666666,7049,02,Ordynacka
175,52.219494,20.989372,13:34:22,404,5908,13:33:00,1.3666666666666667,4028,01,Raszyńska
116,52.26902,20.985092,13:34:21,12,5910,13:26:00,8.35,6003,01,pl.Wilsona
128,52.228156,21.003505,13:34:16,410,5913,13:33:00,1.2666666666666666,7002,02,Dw.Centralny
111,52.240082,21.016689,13:34:23,5,5914,13:32:00,2.3833333333333333,7044,01,Uniwersytet
111,52.2333847,21.0665995,13:34:24,10,5917,13:32:00,2.4,2141,02,Zwycięzców
116,52.168378,21.073858,13:34:21,6,5923,13:28:00,6.35,3043,02,Królowej Marysieńki
